[{"airline":"3M","airlineId":"20710","srcIata":"FLL","srcAirportId":"3533","dstIata":"BIM","dstAirportId":"1937","codeshare":"","stops":"0","equipment":"SF3","srcAirport":{"airportId":"3533","name":"Fort Lauderdale Hollywood International Airport","city":"Fort Lauderdale","country":"United States","icao":"KFLL","lat":"26.072599","lng":"-80.152702","alt":"9","timezone":"-5","dst":"A","tz":"America/New_York","type":"airport","source":"OurAirports"},"dstAirport":{"airportId":"1937","name":"South Bimini Airport","city":"Alice Town","country":"Bahamas","icao":"MYBS","lat":"25.6998996735","lng":"-79.2647018433","alt":"10","timezone":"-5","dst":"U","tz":"America/Nassau","type":"airport","source":"OurAirports"}},{"airline":"3M","airlineId":"20710","srcIata":"FLL","srcAirportId":"3533","dstIata":"ELH","dstAirportId":"1943","codeshare":"","stops":"0","equipment":"SF3","srcAirport":{"airportId":"3533","name":"Fort Lauderdale Hollywood International Airport","city":"Fort Lauderdale","country":"United States","icao":"KFLL","lat":"26.072599","lng":"-80.152702","alt":"9","timezone":"-5","dst":"A","tz":"America/New_York","type":"airport","source":"OurAirports"},"dstAirport":{"airportId":"1943","name":"North Eleuthera Airport","city":"North Eleuthera","country":"Bahamas","icao":"MYEH","lat":"25.474899292","lng":"-76.6835021973","alt":"13","timezone":"-5","dst":"U","tz":"America/Nassau","type":"airport","source":"OurAirports"}},{"airline":"3M","airlineId":"20710","srcIata":"FLL","srcAirportId":"3533","dstIata":"FPO","dstAirportId":"1948","codeshare":"","stops":"0","equipment":"SF3","srcAirport":{"airportId":"3533","name":"Fort Lauderdale Hollywood International Airport","city":"Fort Lauderdale","country":"United States","icao":"KFLL","lat":"26.072599","lng":"-80.152702","alt":"9","timezone":"-5","dst":"A","tz":"America/New_York","type":"airport","source":"OurAirports"},"dstAirport":{"airportId":"1948","name":"Grand Bahama International Airport","city":"Freeport","country":"Bahamas","icao":"MYGF","lat":"26.5587005615","lng":"-78.695602417","alt":"7","timezone":"-5","dst":"U","tz":"America/Nassau","type":"airport","source":"OurAirports"}},{"airline":"3M","airlineId":"20710","srcIata":"FLL","srcAirportId":"3533","dstIata":"GGT","dstAirportId":"1941","codeshare":"","stops":"0","equipment":"SF3","srcAirport":{"airportId":"3533","name":"Fort Lauderdale Hollywood International Airport","city":"Fort Lauderdale","country":"United States","icao":"KFLL","lat":"26.072599","lng":"-80.152702","alt":"9","timezone":"-5","dst":"A","tz":"America/New_York","type":"airport","source":"OurAirports"},"dstAirport":{"airportId":"1941","name":"Exuma International Airport","city":"Great Exuma","country":"Bahamas","icao":"MYEF","lat":"23.5625991821","lng":"-75.8779983521","alt":"9","timezone":"-5","dst":"U","tz":"America/Nassau","type":"airport","source":"OurAirports"}},{"airline":"3M","airlineId":"20710","srcIata":"FLL","srcAirportId":"3533","dstIata":"GHB","dstAirportId":"1944","codeshare":"","stops":"0","equipment":"SF3","srcAirport":{"airportId":"3533","name":"Fort Lauderdale Hollywood International Airport","city":"Fort Lauderdale","country":"United States","icao":"KFLL","lat":"26.072599","lng":"-80.152702","alt":"9","timezone":"-5","dst":"A","tz":"America/New_York","type":"airport","source":"OurAirports"},"dstAirport":{"airportId":"1944","name":"Governor's Harbour Airport","city":"Governor's Harbor","country":"Bahamas","icao":"MYEM","lat":"25.2847003937","lng":"-76.3310012817","alt":"26","timezone":"-5","dst":"U","tz":"America/Nassau","type":"airport","source":"OurAirports"}},{"airline":"3M","airlineId":"20710","srcIata":"FLL","srcAirportId":"3533","dstIata":"MHH","dstAirportId":"1930","codeshare":"","stops":"0","equipment":"SF3","srcAirport":{"airportId":"3533","name":"Fort Lauderdale Hollywood International Airport","city":"Fort Lauderdale","country":"United States","icao":"KFLL","lat":"26.072599","lng":"-80.152702","alt":"9","timezone":"-5","dst":"A","tz":"America/New_York","type":"airport","source":"OurAirports"},"dstAirport":{"airportId":"1930","name":"Leonard M Thompson International Airport","city":"Marsh Harbor","country":"Bahamas","icao":"MYAM","lat":"26.5114","lng":"-77.083503","alt":"6","timezone":"-5","dst":"U","tz":"America/Nassau","type":"airport","source":"OurAirports"}},{"airline":"3M","airlineId":"20710","srcIata":"FLL","srcAirportId":"3533","dstIata":"TCB","dstAirportId":"1934","codeshare":"","stops":"0","equipment":"SF3","srcAirport":{"airportId":"3533","name":"Fort Lauderdale Hollywood International Airport","city":"Fort Lauderdale","country":"United States","icao":"KFLL","lat":"26.072599","lng":"-80.152702","alt":"9","timezone":"-5","dst":"A","tz":"America/New_York","type":"airport","source":"OurAirports"},"dstAirport":{"airportId":"1934","name":"Treasure Cay Airport","city":"Treasure Cay","country":"Bahamas","icao":"MYAT","lat":"26.745300293","lng":"-77.3912963867","alt":"8","timezone":"-5","dst":"U","tz":"America/Nassau","type":"airport","source":"OurAirports"}},{"airline":"3M","airlineId":"20710","srcIata":"JAX","srcAirportId":"3712","dstIata":"MHH","dstAirportId":"1930","codeshare":"","stops":"0","equipment":"SF3","srcAirport":{"airportId":"3712","name":"Jacksonville International Airport","city":"Jacksonville","country":"United States","icao":"KJAX","lat":"30.49410057067871","lng":"-81.68789672851562","alt":"30","timezone":"-5","dst":"A","tz":"America/New_York","type":"airport","source":"OurAirports"},"dstAirport":{"airportId":"1930","name":"Leonard M Thompson International Airport","city":"Marsh Harbor","country":"Bahamas","icao":"MYAM","lat":"26.5114","lng":"-77.083503","alt":"6","timezone":"-5","dst":"U","tz":"America/Nassau","type":"airport","source":"OurAirports"}},{"airline":"3M","airlineId":"20710","srcIata":"MCO","srcAirportId":"3878","dstIata":"MHH","dstAirportId":"1930","codeshare":"","stops":"0","equipment":"SF3","srcAirport":{"airportId":"3878","name":"Orlando International Airport","city":"Orlando","country":"United States","icao":"KMCO","lat":"28.429399490356445","lng":"-81.30899810791016","alt":"96","timezone":"-5","dst":"A","tz":"America/New_York","type":"airport","source":"OurAirports"},"dstAirport":{"airportId":"1930","name":"Leonard M Thompson International Airport","city":"Marsh Harbor","country":"Bahamas","icao":"MYAM","lat":"26.5114","lng":"-77.083503","alt":"6","timezone":"-5","dst":"U","tz":"America/Nassau","type":"airport","source":"OurAirports"}},{"airline":"3M","airlineId":"20710","srcIata":"PBI","srcAirportId":"3722","dstIata":"ELH","dstAirportId":"1943","codeshare":"","stops":"0","equipment":"SF3","srcAirport":{"airportId":"3722","name":"Palm Beach International Airport","city":"West Palm Beach","country":"United States","icao":"KPBI","lat":"26.68320083618164","lng":"-80.09559631347656","alt":"19","timezone":"-5","dst":"A","tz":"America/New_York","type":"airport","source":"OurAirports"},"dstAirport":{"airportId":"1943","name":"North Eleuthera Airport","city":"North Eleuthera","country":"Bahamas","icao":"MYEH","lat":"25.474899292","lng":"-76.6835021973","alt":"13","timezone":"-5","dst":"U","tz":"America/Nassau","type":"airport","source":"OurAirports"}},{"airline":"3M","airlineId":"20710","srcIata":"PBI","srcAirportId":"3722","dstIata":"MHH","dstAirportId":"1930","codeshare":"","stops":"0","equipment":"SF3","srcAirport":{"airportId":"3722","name":"Palm Beach International Airport","city":"West Palm Beach","country":"United States","icao":"KPBI","lat":"26.68320083618164","lng":"-80.09559631347656","alt":"19","timezone":"-5","dst":"A","tz":"America/New_York","type":"airport","source":"OurAirports"},"dstAirport":{"airportId":"1930","name":"Leonard M Thompson International Airport","city":"Marsh Harbor","country":"Bahamas","icao":"MYAM","lat":"26.5114","lng":"-77.083503","alt":"6","timezone":"-5","dst":"U","tz":"America/Nassau","type":"airport","source":"OurAirports"}},{"airline":"4M","airlineId":"3201","srcIata":"DFW","srcAirportId":"3670","dstIata":"EZE","dstAirportId":"3988","codeshare":"Y","stops":"0","equipment":"777","srcAirport":{"airportId":"3670","name":"Dallas Fort Worth International Airport","city":"Dallas-Fort Worth","country":"United States","icao":"KDFW","lat":"32.896801","lng":"-97.038002","alt":"607","timezone":"-6","dst":"A","tz":"America/Chicago","type":"airport","source":"OurAirports"},"dstAirport":{"airportId":"3988","name":"Ministro Pistarini International Airport","city":"Buenos Aires","country":"Argentina","icao":"SAEZ","lat":"-34.8222","lng":"-58.5358","alt":"67","timezone":"-3","dst":"N","tz":"America/Buenos_Aires","type":"airport","source":"OurAirports"}},{"airline":"4M","airlineId":"3201","srcIata":"JFK","srcAirportId":"3797","dstIata":"EZE","dstAirportId":"3988","codeshare":"Y","stops":"0","equipment":"777","srcAirport":{"airportId":"3797","name":"John F Kennedy International Airport","city":"New York","country":"United States","icao":"KJFK","lat":"40.63980103","lng":"-73.77890015","alt":"13","timezone":"-5","dst":"A","tz":"America/New_York","type":"airport","source":"OurAirports"},"dstAirport":{"airportId":"3988","name":"Ministro Pistarini International Airport","city":"Buenos Aires","country":"Argentina","icao":"SAEZ","lat":"-34.8222","lng":"-58.5358","alt":"67","timezone":"-3","dst":"N","tz":"America/Buenos_Aires","type":"airport","source":"OurAirports"}},{"airline":"4M","airlineId":"3201","srcIata":"MIA","srcAirportId":"3576","dstIata":"EZE","dstAirportId":"3988","codeshare":"","stops":"0","equipment":"777 763","srcAirport":{"airportId":"3576","name":"Miami International Airport","city":"Miami","country":"United States","icao":"KMIA","lat":"25.79319953918457","lng":"-80.29060363769531","alt":"8","timezone":"-5","dst":"A","tz":"America/New_York","type":"airport","source":"OurAirports"},"dstAirport":{"airportId":"3988","name":"Ministro Pistarini International Airport","city":"Buenos Aires","country":"Argentina","icao":"SAEZ","lat":"-34.8222","lng":"-58.5358","alt":"67","timezone":"-3","dst":"N","tz":"America/Buenos_Aires","type":"airport","source":"OurAirports"}},{"airline":"4M","airlineId":"3201","srcIata":"MIA","srcAirportId":"3576","dstIata":"PUJ","dstAirportId":"1760","codeshare":"","stops":"0","equipment":"763","srcAirport":{"airportId":"3576","name":"Miami International Airport","city":"Miami","country":"United States","icao":"KMIA","lat":"25.79319953918457","lng":"-80.29060363769531","alt":"8","timezone":"-5","dst":"A","tz":"America/New_York","type":"airport","source":"OurAirports"},"dstAirport":{"airportId":"1760","name":"Punta Cana International Airport","city":"Punta Cana","country":"Dominican Republic","icao":"MDPC","lat":"18.567399978599997","lng":"-68.36340332030001","alt":"47","timezone":"-4","dst":"U","tz":"America/Santo_Domingo","type":"airport","source":"OurAirports"}},{"airline":"4O","airlineId":"17885","srcIata":"JFK","srcAirportId":"3797","dstIata":"MEX","dstAirportId":"1824","codeshare":"","stops":"0","equipment":"320","srcAirport":{"airportId":"3797","name":"John F Kennedy International Airport","city":"New York","country":"United States","icao":"KJFK","lat":"40.63980103","lng":"-73.77890015","alt":"13","timezone":"-5","dst":"A","tz":"America/New_York","type":"airport","source":"OurAirports"},"dstAirport":{"airportId":"1824","name":"Licenciado Benito Juarez International Airport","city":"Mexico City","country":"Mexico","icao":"MMMX","lat":"19.4363","lng":"-99.072098","alt":"7316","timezone":"-6","dst":"S","tz":"America/Mexico_City","type":"airport","source":"OurAirports"}},{"airline":"4O","airlineId":"17885","srcIata":"LAS","srcAirportId":"3877","dstIata":"MTY","dstAirportId":"1825","codeshare":"","stops":"0","equipment":"320","srcAirport":{"airportId":"3877","name":"McCarran International Airport","city":"Las Vegas","country":"United States","icao":"KLAS","lat":"36.08010101","lng":"-115.1520004","alt":"2181","timezone":"-8","dst":"A","tz":"America/Los_Angeles","type":"airport","source":"OurAirports"},"dstAirport":{"airportId":"1825","name":"General Mariano Escobedo International Airport","city":"Monterrey","country":"Mexico","icao":"MMMY","lat":"25.7784996033","lng":"-100.107002258","alt":"1278","timezone":"-6","dst":"S","tz":"America/Mexico_City","type":"airport","source":"OurAirports"}},{"airline":"4O","airlineId":"17885","srcIata":"LAS","srcAirportId":"3877","dstIata":"TLC","dstAirportId":"1850","codeshare":"","stops":"0","equipment":"320","srcAirport":{"airportId":"3877","name":"McCarran International Airport","city":"Las Vegas","country":"United States","icao":"KLAS","lat":"36.08010101","lng":"-115.1520004","alt":"2181","timezone":"-8","dst":"A","tz":"America/Los_Angeles","type":"airport","source":"OurAirports"},"dstAirport":{"airportId":"1850","name":"Licenciado Adolfo Lopez Mateos International Airport","city":"Toluca","country":"Mexico","icao":"MMTO","lat":"19.3370990753","lng":"-99.56600189210002","alt":"8466","timezone":"-6","dst":"S","tz":"America/Mexico_City","type":"airport","source":"OurAirports"}},{"airline":"4O","airlineId":"17885","srcIata":"MIA","srcAirportId":"3576","dstIata":"MEX","dstAirportId":"1824","codeshare":"","stops":"0","equipment":"320","srcAirport":{"airportId":"3576","name":"Miami International Airport","city":"Miami","country":"United States","icao":"KMIA","lat":"25.79319953918457","lng":"-80.29060363769531","alt":"8","timezone":"-5","dst":"A","tz":"America/New_York","type":"airport","source":"OurAirports"},"dstAirport":{"airportId":"1824","name":"Licenciado Benito Juarez International Airport","city":"Mexico City","country":"Mexico","icao":"MMMX","lat":"19.4363","lng":"-99.072098","alt":"7316","timezone":"-6","dst":"S","tz":"America/Mexico_City","type":"airport","source":"OurAirports"}},{"airline":"4O","airlineId":"17885","srcIata":"SAT","srcAirportId":"3621","dstIata":"GDL","dstAirportId":"1804","codeshare":"","stops":"0","equipment":"320","srcAirport":{"airportId":"3621","name":"San Antonio International Airport","city":"San Antonio","country":"United States","icao":"KSAT","lat":"29.533700942993164","lng":"-98.46980285644531","alt":"809","timezone":"-6","dst":"A","tz":"America/Chicago","type":"airport","source":"OurAirports"},"dstAirport":{"airportId":"1804","name":"Don Miguel Hidalgo Y Costilla International Airport","city":"Guadalajara","country":"Mexico","icao":"MMGL","lat":"20.521799087524414","lng":"-103.31099700927734","alt":"5016","timezone":"-6","dst":"S","tz":"America/Mexico_City","type":"airport","source":"OurAirports"}},{"airline":"4O","airlineId":"17885","srcIata":"SAT","srcAirportId":"3621","dstIata":"MEX","dstAirportId":"1824","codeshare":"","stops":"0","equipment":"320","srcAirport":{"airportId":"3621","name":"San Antonio International Airport","city":"San Antonio","country":"United States","icao":"KSAT","lat":"29.533700942993164","lng":"-98.46980285644531","alt":"809","timezone":"-6","dst":"A","tz":"America/Chicago","type":"airport","source":"OurAirports"},"dstAirport":{"airportId":"1824","name":"Licenciado Benito Juarez International Airport","city":"Mexico City","country":"Mexico","icao":"MMMX","lat":"19.4363","lng":"-99.072098","alt":"7316","timezone":"-6","dst":"S","tz":"America/Mexico_City","type":"airport","source":"OurAirports"}},{"airline":"4O","airlineId":"17885","srcIata":"SAT","srcAirportId":"3621","dstIata":"MTY","dstAirportId":"1825","codeshare":"","stops":"0","equipment":"320","srcAirport":{"airportId":"3621","name":"San Antonio International Airport","city":"San Antonio","country":"United States","icao":"KSAT","lat":"29.533700942993164","lng":"-98.46980285644531","alt":"809","timezone":"-6","dst":"A","tz":"America/Chicago","type":"airport","source":"OurAirports"},"dstAirport":{"airportId":"1825","name":"General Mariano Escobedo International Airport","city":"Monterrey","country":"Mexico","icao":"MMMY","lat":"25.7784996033","lng":"-100.107002258","alt":"1278","timezone":"-6","dst":"S","tz":"America/Mexico_City","type":"airport","source":"OurAirports"}},{"airline":"4O","airlineId":"17885","srcIata":"SAT","srcAirportId":"3621","dstIata":"TLC","dstAirportId":"1850","codeshare":"","stops":"0","equipment":"320","srcAirport":{"airportId":"3621","name":"San Antonio International Airport","city":"San Antonio","country":"United States","icao":"KSAT","lat":"29.533700942993164","lng":"-98.46980285644531","alt":"809","timezone":"-6","dst":"A","tz":"America/Chicago","type":"airport","source":"OurAirports"},"dstAirport":{"airportId":"1850","name":"Licenciado Adolfo Lopez Mateos International Airport","city":"Toluca","country":"Mexico","icao":"MMTO","lat":"19.3370990753","lng":"-99.56600189210002","alt":"8466","timezone":"-6","dst":"S","tz":"America/Mexico_City","type":"airport","source":"OurAirports"}},{"airline":"4O","airlineId":"17885","srcIata":"SNA","srcAirportId":"3867","dstIata":"GDL","dstAirportId":"1804","codeshare":"","stops":"0","equipment":"320","srcAirport":{"airportId":"3867","name":"John Wayne Airport-Orange County Airport","city":"Santa Ana","country":"United States","icao":"KSNA","lat":"33.67570114","lng":"-117.8679962","alt":"56","timezone":"-8","dst":"A","tz":"America/Los_Angeles","type":"airport","source":"OurAirports"},"dstAirport":{"airportId":"1804","name":"Don Miguel Hidalgo Y Costilla International Airport","city":"Guadalajara","country":"Mexico","icao":"MMGL","lat":"20.521799087524414","lng":"-103.31099700927734","alt":"5016","timezone":"-6","dst":"S","tz":"America/Mexico_City","type":"airport","source":"OurAirports"}},{"airline":"4O","airlineId":"17885","srcIata":"SNA","srcAirportId":"3867","dstIata":"MEX","dstAirportId":"1824","codeshare":"","stops":"0","equipment":"320","srcAirport":{"airportId":"3867","name":"John Wayne Airport-Orange County Airport","city":"Santa Ana","country":"United States","icao":"KSNA","lat":"33.67570114","lng":"-117.8679962","alt":"56","timezone":"-8","dst":"A","tz":"America/Los_Angeles","type":"airport","source":"OurAirports"},"dstAirport":{"airportId":"1824","name":"Licenciado Benito Juarez International Airport","city":"Mexico City","country":"Mexico","icao":"MMMX","lat":"19.4363","lng":"-99.072098","alt":"7316","timezone":"-6","dst":"S","tz":"America/Mexico_City","type":"airport","source":"OurAirports"}},{"airline":"7I","airlineId":"18944","srcIata":"CLT","srcAirportId":"3876","dstIata":"CUR","dstAirportId":"2897","codeshare":"","stops":"0","equipment":"M83","srcAirport":{"airportId":"3876","name":"Charlotte Douglas International Airport","city":"Charlotte","country":"United States","icao":"KCLT","lat":"35.2140007019043","lng":"-80.94309997558594","alt":"748","timezone":"-5","dst":"A","tz":"America/New_York","type":"airport","source":"OurAirports"},"dstAirport":{"airportId":"2897","name":"Hato International Airport","city":"Willemstad","country":"Netherlands Antilles","icao":"TNCC","lat":"12.1889","lng":"-68.959801","alt":"29","timezone":"-4","dst":"U","tz":"America/Curacao","type":"airport","source":"OurAirports"}},{"airline":"7I","airlineId":"18944","srcIata":"MIA","srcAirportId":"3576","dstIata":"AUA","dstAirportId":"2895","codeshare":"","stops":"0","equipment":"M83","srcAirport":{"airportId":"3576","name":"Miami International Airport","city":"Miami","country":"United States","icao":"KMIA","lat":"25.79319953918457","lng":"-80.29060363769531","alt":"8","timezone":"-5","dst":"A","tz":"America/New_York","type":"airport","source":"OurAirports"},"dstAirport":{"airportId":"2895","name":"Queen Beatrix International Airport","city":"Oranjestad","country":"Aruba","icao":"TNCA","lat":"12.5014","lng":"-70.015198","alt":"60","timezone":"-4","dst":"U","tz":"America/Aruba","type":"airport","source":"OurAirports"}},{"airline":"7I","airlineId":"18944","srcIata":"MIA","srcAirportId":"3576","dstIata":"CUR","dstAirportId":"2897","codeshare":"","stops":"0","equipment":"M83","srcAirport":{"airportId":"3576","name":"Miami International Airport","city":"Miami","country":"United States","icao":"KMIA","lat":"25.79319953918457","lng":"-80.29060363769531","alt":"8","timezone":"-5","dst":"A","tz":"America/New_York","type":"airport","source":"OurAirports"},"dstAirport":{"airportId":"2897","name":"Hato International Airport","city":"Willemstad","country":"Netherlands Antilles","icao":"TNCC","lat":"12.1889","lng":"-68.959801","alt":"29","timezone":"-4","dst":"U","tz":"America/Curacao","type":"airport","source":"OurAirports"}},{"airline":"8I","airlineId":"3534","srcIata":"MIA","srcAirportId":"3576","dstIata":"AUA","dstAirportId":"2895","codeshare":"","stops":"0","equipment":"M82","srcAirport":{"airportId":"3576","name":"Miami International Airport","city":"Miami","country":"United States","icao":"KMIA","lat":"25.79319953918457","lng":"-80.29060363769531","alt":"8","timezone":"-5","dst":"A","tz":"America/New_York","type":"airport","source":"OurAirports"},"dstAirport":{"airportId":"2895","name":"Queen Beatrix International Airport","city":"Oranjestad","country":"Aruba","icao":"TNCA","lat":"12.5014","lng":"-70.015198","alt":"60","timezone":"-4","dst":"U","tz":"America/Aruba","type":"airport","source":"OurAirports"}},{"airline":"9V","airlineId":"20004","srcIata":"MIA","srcAirportId":"3576","dstIata":"BLA","dstAirportId":"2821","codeshare":"","stops":"0","equipment":"734","srcAirport":{"airportId":"3576","name":"Miami International Airport","city":"Miami","country":"United States","icao":"KMIA","lat":"25.79319953918457","lng":"-80.29060363769531","alt":"8","timezone":"-5","dst":"A","tz":"America/New_York","type":"airport","source":"OurAirports"},"dstAirport":{"airportId":"2821","name":"General José Antonio Anzoategui International Airport","city":"Barcelona","country":"Venezuela","icao":"SVBC","lat":"10.111111","lng":"-64.692222","alt":"30","timezone":"-4","dst":"U","tz":"America/Caracas","type":"airport","source":"OurAirports"}},{"airline":"9W","airlineId":"3000","srcIata":"EWR","srcAirportId":"3494","dstIata":"BRU","dstAirportId":"302","codeshare":"","stops":"0","equipment":"333","srcAirport":{"airportId":"3494","name":"Newark Liberty International Airport","city":"Newark","country":"United States","icao":"KEWR","lat":"40.692501068115234","lng":"-74.168701171875","alt":"18","timezone":"-5","dst":"A","tz":"America/New_York","type":"airport","source":"OurAirports"},"dstAirport":{"airportId":"302","name":"Brussels Airport","city":"Brussels","country":"Belgium","icao":"EBBR","lat":"50.901401519800004","lng":"4.48443984985","alt":"184","timezone":"1","dst":"E","tz":"Europe/Brussels","type":"airport","source":"OurAirports"}},{"airline":"A3","airlineId":"96","srcIata":"PHL","srcAirportId":"3752","dstIata":"ATH","dstAirportId":"3941","codeshare":"Y","stops":"0","equipment":"332","srcAirport":{"airportId":"3752","name":"Philadelphia International Airport","city":"Philadelphia","country":"United States","icao":"KPHL","lat":"39.87189865112305","lng":"-75.24109649658203","alt":"36","timezone":"-5","dst":"A","tz":"America/New_York","type":"airport","source":"OurAirports"},"dstAirport":{"airportId":"3941","name":"Eleftherios Venizelos International Airport","city":"Athens","country":"Greece","icao":"LGAV","lat":"37.9364013672","lng":"23.9444999695","alt":"308","timezone":"2","dst":"E","tz":"Europe/Athens","type":"airport","source":"OurAirports"}},{"airline":"AA","airlineId":"24","srcIata":"ATL","srcAirportId":"3682","dstIata":"LHR","dstAirportId":"507","codeshare":"Y","stops":"0","equipment":"777","srcAirport":{"airportId":"3682","name":"Hartsfield Jackson Atlanta International Airport","city":"Atlanta","country":"United States","icao":"KATL","lat":"33.6367","lng":"-84.428101","alt":"1026","timezone":"-5","dst":"A","tz":"America/New_York","type":"airport","source":"OurAirports"},"dstAirport":{"airportId":"507","name":"London Heathrow Airport","city":"London","country":"United Kingdom","icao":"EGLL","lat":"51.4706","lng":"-0.461941","alt":"83","timezone":"0","dst":"E","tz":"Europe/London","type":"airport","source":"OurAirports"}},{"airline":"AA","airlineId":"24","srcIata":"AUS","srcAirportId":"3673","dstIata":"LHR","dstAirportId":"507","codeshare":"","stops":"0","equipment":"787","srcAirport":{"airportId":"3673","name":"Austin Bergstrom International Airport","city":"Austin","country":"United States","icao":"KAUS","lat":"30.194499969482422","lng":"-97.6698989868164","alt":"542","timezone":"-6","dst":"A","tz":"America/Chicago","type":"airport","source":"OurAirports"},"dstAirport":{"airportId":"507","name":"London Heathrow Airport","city":"London","country":"United Kingdom","icao":"EGLL","lat":"51.4706","lng":"-0.461941","alt":"83","timezone":"0","dst":"E","tz":"Europe/London","type":"airport","source":"OurAirports"}},{"airline":"AA","airlineId":"24","srcIata":"BOS","srcAirportId":"3448","dstIata":"CUN","dstAirportId":"1852","codeshare":"","stops":"0","equipment":"319","srcAirport":{"airportId":"3448","name":"General Edward Lawrence Logan International Airport","city":"Boston","country":"United States","icao":"KBOS","lat":"42.36429977","lng":"-71.00520325","alt":"20","timezone":"-5","dst":"A","tz":"America/New_York","type":"airport","source":"OurAirports"},"dstAirport":{"airportId":"1852","name":"Cancún International Airport","city":"Cancun","country":"Mexico","icao":"MMUN","lat":"21.036500930800003","lng":"-86.8770980835","alt":"22","timezone":"-5","dst":"S","tz":"America/Cancun","type":"airport","source":"OurAirports"}},{"airline":"AA","airlineId":"24","srcIata":"BOS","srcAirportId":"3448","dstIata":"LHR","dstAirportId":"507","codeshare":"Y","stops":"0","equipment":"777 744","srcAirport":{"airportId":"3448","name":"General Edward Lawrence Logan International Airport","city":"Boston","country":"United States","icao":"KBOS","lat":"42.36429977","lng":"-71.00520325","alt":"20","timezone":"-5","dst":"A","tz":"America/New_York","type":"airport","source":"OurAirports"},"dstAirport":{"airportId":"507","name":"London Heathrow Airport","city":"London","country":"United Kingdom","icao":"EGLL","lat":"51.4706","lng":"-0.461941","alt":"83","timezone":"0","dst":"E","tz":"Europe/London","type":"airport","source":"OurAirports"}},{"airline":"AA","airlineId":"24","srcIata":"BOS","srcAirportId":"3448","dstIata":"MAD","dstAirportId":"1229","codeshare":"","stops":"0","equipment":"330","srcAirport":{"airportId":"3448","name":"General Edward Lawrence Logan International Airport","city":"Boston","country":"United States","icao":"KBOS","lat":"42.36429977","lng":"-71.00520325","alt":"20","timezone":"-5","dst":"A","tz":"America/New_York","type":"airport","source":"OurAirports"},"dstAirport":{"airportId":"1229","name":"Adolfo Suárez Madrid–Barajas Airport","city":"Madrid","country":"Spain","icao":"LEMD","lat":"40.471926","lng":"-3.56264","alt":"1998","timezone":"1","dst":"E","tz":"Europe/Madrid","type":"airport","source":"OurAirports"}},{"airline":"AA","airlineId":"24","srcIata":"BOS","srcAirportId":"3448","dstIata":"NRT","dstAirportId":"2279","codeshare":"","stops":"0","equipment":"787","srcAirport":{"airportId":"3448","name":"General Edward Lawrence Logan International Airport","city":"Boston","country":"United States","icao":"KBOS","lat":"42.36429977","lng":"-71.00520325","alt":"20","timezone":"-5","dst":"A","tz":"America/New_York","type":"airport","source":"OurAirports"},"dstAirport":{"airportId":"2279","name":"Narita International Airport","city":"Tokyo","country":"Japan","icao":"RJAA","lat":"35.7647018433","lng":"140.386001587","alt":"141","timezone":"9","dst":"U","tz":"Asia/Tokyo","type":"airport","source":"OurAirports"}},{"airline":"AA","airlineId":"24","srcIata":"BWI","srcAirportId":"3849","dstIata":"LHR","dstAirportId":"507","codeshare":"Y","stops":"0","equipment":"767","srcAirport":{"airportId":"3849","name":"Baltimore/Washington International Thurgood Marshall Airport","city":"Baltimore","country":"United States","icao":"KBWI","lat":"39.1754","lng":"-76.668297","alt":"146","timezone":"-5","dst":"A","tz":"America/New_York","type":"airport","source":"OurAirports"},"dstAirport":{"airportId":"507","name":"London Heathrow Airport","city":"London","country":"United Kingdom","icao":"EGLL","lat":"51.4706","lng":"-0.461941","alt":"83","timezone":"0","dst":"E","tz":"Europe/London","type":"airport","source":"OurAirports"}},{"airline":"AA","airlineId":"24","srcIata":"CLT","srcAirportId":"3876","dstIata":"ANU","dstAirportId":"2874","codeshare":"","stops":"0","equipment":"319","srcAirport":{"airportId":"3876","name":"Charlotte Douglas International Airport","city":"Charlotte","country":"United States","icao":"KCLT","lat":"35.2140007019043","lng":"-80.94309997558594","alt":"748","timezone":"-5","dst":"A","tz":"America/New_York","type":"airport","source":"OurAirports"},"dstAirport":{"airportId":"2874","name":"V.C. Bird International Airport","city":"Antigua","country":"Antigua and Barbuda","icao":"TAPA","lat":"17.1367","lng":"-61.792702","alt":"62","timezone":"-4","dst":"U","tz":"America/Antigua","type":"airport","source":"OurAirports"}},{"airline":"AA","airlineId":"24","srcIata":"CLT","srcAirportId":"3876","dstIata":"AUA","dstAirportId":"2895","codeshare":"","stops":"0","equipment":"757 319 320","srcAirport":{"airportId":"3876","name":"Charlotte Douglas International Airport","city":"Charlotte","country":"United States","icao":"KCLT","lat":"35.2140007019043","lng":"-80.94309997558594","alt":"748","timezone":"-5","dst":"A","tz":"America/New_York","type":"airport","source":"OurAirports"},"dstAirport":{"airportId":"2895","name":"Queen Beatrix International Airport","city":"Oranjestad","country":"Aruba","icao":"TNCA","lat":"12.5014","lng":"-70.015198","alt":"60","timezone":"-4","dst":"U","tz":"America/Aruba","type":"airport","source":"OurAirports"}},{"airline":"AA","airlineId":"24","srcIata":"CLT","srcAirportId":"3876","dstIata":"BZE","dstAirportId":"1957","codeshare":"","stops":"0","equipment":"319","srcAirport":{"airportId":"3876","name":"Charlotte Douglas International Airport","city":"Charlotte","country":"United States","icao":"KCLT","lat":"35.2140007019043","lng":"-80.94309997558594","alt":"748","timezone":"-5","dst":"A","tz":"America/New_York","type":"airport","source":"OurAirports"},"dstAirport":{"airportId":"1957","name":"Philip S. W. Goldson International Airport","city":"Belize City","country":"Belize","icao":"MZBZ","lat":"17.539100646972656","lng":"-88.30819702148438","alt":"15","timezone":"-6","dst":"U","tz":"America/Belize","type":"airport","source":"OurAirports"}},{"airline":"AA","airlineId":"24","srcIata":"CLT","srcAirportId":"3876","dstIata":"CDG","dstAirportId":"1382","codeshare":"","stops":"0","equipment":"333","srcAirport":{"airportId":"3876","name":"Charlotte Douglas International Airport","city":"Charlotte","country":"United States","icao":"KCLT","lat":"35.2140007019043","lng":"-80.94309997558594","alt":"748","timezone":"-5","dst":"A","tz":"America/New_York","type":"airport","source":"OurAirports"},"dstAirport":{"airportId":"1382","name":"Charles de Gaulle International Airport","city":"Paris","country":"France","icao":"LFPG","lat":"49.012798","lng":"2.55","alt":"392","timezone":"1","dst":"E","tz":"Europe/Paris","type":"airport","source":"OurAirports"}},{"airline":"AA","airlineId":"24","srcIata":"CLT","srcAirportId":"3876","dstIata":"CUN","dstAirportId":"1852","codeshare":"","stops":"0","equipment":"321 320 737","srcAirport":{"airportId":"3876","name":"Charlotte Douglas International Airport","city":"Charlotte","country":"United States","icao":"KCLT","lat":"35.2140007019043","lng":"-80.94309997558594","alt":"748","timezone":"-5","dst":"A","tz":"America/New_York","type":"airport","source":"OurAirports"},"dstAirport":{"airportId":"1852","name":"Cancún International Airport","city":"Cancun","country":"Mexico","icao":"MMUN","lat":"21.036500930800003","lng":"-86.8770980835","alt":"22","timezone":"-5","dst":"S","tz":"America/Cancun","type":"airport","source":"OurAirports"}},{"airline":"AA","airlineId":"24","srcIata":"CLT","srcAirportId":"3876","dstIata":"CZM","dstAirportId":"1800","codeshare":"","stops":"0","equipment":"319","srcAirport":{"airportId":"3876","name":"Charlotte Douglas International Airport","city":"Charlotte","country":"United States","icao":"KCLT","lat":"35.2140007019043","lng":"-80.94309997558594","alt":"748","timezone":"-5","dst":"A","tz":"America/New_York","type":"airport","source":"OurAirports"},"dstAirport":{"airportId":"1800","name":"Cozumel International Airport","city":"Cozumel","country":"Mexico","icao":"MMCZ","lat":"20.52239990234375","lng":"-86.92559814453125","alt":"15","timezone":"-5","dst":"S","tz":"America/Cancun","type":"airport","source":"OurAirports"}},{"airline":"AA","airlineId":"24","srcIata":"CLT","srcAirportId":"3876","dstIata":"DUB","dstAirportId":"599","codeshare":"","stops":"0","equipment":"757","srcAirport":{"airportId":"3876","name":"Charlotte Douglas International Airport","city":"Charlotte","country":"United States","icao":"KCLT","lat":"35.2140007019043","lng":"-80.94309997558594","alt":"748","timezone":"-5","dst":"A","tz":"America/New_York","type":"airport","source":"OurAirports"},"dstAirport":{"airportId":"599","name":"Dublin Airport","city":"Dublin","country":"Ireland","icao":"EIDW","lat":"53.421299","lng":"-6.27007","alt":"242","timezone":"0","dst":"E","tz":"Europe/Dublin","type":"airport","source":"OurAirports"}},{"airline":"AA","airlineId":"24","srcIata":"CLT","srcAirportId":"3876","dstIata":"FCO","dstAirportId":"1555","codeshare":"","stops":"0","equipment":"333","srcAirport":{"airportId":"3876","name":"Charlotte Douglas International Airport","city":"Charlotte","country":"United States","icao":"KCLT","lat":"35.2140007019043","lng":"-80.94309997558594","alt":"748","timezone":"-5","dst":"A","tz":"America/New_York","type":"airport","source":"OurAirports"},"dstAirport":{"airportId":"1555","name":"Leonardo da Vinci–Fiumicino Airport","city":"Rome","country":"Italy","icao":"LIRF","lat":"41.8002778","lng":"12.2388889","alt":"13","timezone":"1","dst":"E","tz":"Europe/Rome","type":"airport","source":"OurAirports"}},{"airline":"AA","airlineId":"24","srcIata":"CLT","srcAirportId":"3876","dstIata":"FPO","dstAirportId":"1948","codeshare":"Y","stops":"0","equipment":"CR7","srcAirport":{"airportId":"3876","name":"Charlotte Douglas International Airport","city":"Charlotte","country":"United States","icao":"KCLT","lat":"35.2140007019043","lng":"-80.94309997558594","alt":"748","timezone":"-5","dst":"A","tz":"America/New_York","type":"airport","source":"OurAirports"},"dstAirport":{"airportId":"1948","name":"Grand Bahama International Airport","city":"Freeport","country":"Bahamas","icao":"MYGF","lat":"26.5587005615","lng":"-78.695602417","alt":"7","timezone":"-5","dst":"U","tz":"America/Nassau","type":"airport","source":"OurAirports"}},{"airline":"AA","airlineId":"24","srcIata":"CLT","srcAirportId":"3876","dstIata":"FRA","dstAirportId":"340","codeshare":"","stops":"0","equipment":"333 332","srcAirport":{"airportId":"3876","name":"Charlotte Douglas International Airport","city":"Charlotte","country":"United States","icao":"KCLT","lat":"35.2140007019043","lng":"-80.94309997558594","alt":"748","timezone":"-5","dst":"A","tz":"America/New_York","type":"airport","source":"OurAirports"},"dstAirport":{"airportId":"340","name":"Frankfurt am Main Airport","city":"Frankfurt","country":"Germany","icao":"EDDF","lat":"50.033333","lng":"8.570556","alt":"364","timezone":"1","dst":"E","tz":"Europe/Berlin","type":"airport","source":"OurAirports"}},{"airline":"AA","airlineId":"24","srcIata":"CLT","srcAirportId":"3876","dstIata":"GCM","dstAirportId":"1926","codeshare":"","stops":"0","equipment":"320 321 319","srcAirport":{"airportId":"3876","name":"Charlotte Douglas International Airport","city":"Charlotte","country":"United States","icao":"KCLT","lat":"35.2140007019043","lng":"-80.94309997558594","alt":"748","timezone":"-5","dst":"A","tz":"America/New_York","type":"airport","source":"OurAirports"},"dstAirport":{"airportId":"1926","name":"Owen Roberts International Airport","city":"Georgetown","country":"Cayman Islands","icao":"MWCR","lat":"19.292800903299998","lng":"-81.3576965332","alt":"8","timezone":"-5","dst":"N","tz":"America/Cayman","type":"airport","source":"OurAirports"}},{"airline":"AA","airlineId":"24","srcIata":"CLT","srcAirportId":"3876","dstIata":"GRU","dstAirportId":"2564","codeshare":"","stops":"0","equipment":"332","srcAirport":{"airportId":"3876","name":"Charlotte Douglas International Airport","city":"Charlotte","country":"United States","icao":"KCLT","lat":"35.2140007019043","lng":"-80.94309997558594","alt":"748","timezone":"-5","dst":"A","tz":"America/New_York","type":"airport","source":"OurAirports"},"dstAirport":{"airportId":"2564","name":"Guarulhos - Governador André Franco Montoro International Airport","city":"Sao Paulo","country":"Brazil","icao":"SBGR","lat":"-23.435556411743164","lng":"-46.47305679321289","alt":"2459","timezone":"-3","dst":"S","tz":"America/Sao_Paulo","type":"airport","source":"OurAirports"}},{"airline":"AA","airlineId":"24","srcIata":"CLT","srcAirportId":"3876","dstIata":"LHR","dstAirportId":"507","codeshare":"","stops":"0","equipment":"333","srcAirport":{"airportId":"3876","name":"Charlotte Douglas International Airport","city":"Charlotte","country":"United States","icao":"KCLT","lat":"35.2140007019043","lng":"-80.94309997558594","alt":"748","timezone":"-5","dst":"A","tz":"America/New_York","type":"airport","source":"OurAirports"},"dstAirport":{"airportId":"507","name":"London Heathrow Airport","city":"London","country":"United Kingdom","icao":"EGLL","lat":"51.4706","lng":"-0.461941","alt":"83","timezone":"0","dst":"E","tz":"Europe/London","type":"airport","source":"OurAirports"}},{"airline":"AA","airlineId":"24","srcIata":"CLT","srcAirportId":"3876","dstIata":"LIR","dstAirportId":"1881","codeshare":"","stops":"0","equipment":"320","srcAirport":{"airportId":"3876","name":"Charlotte Douglas International Airport","city":"Charlotte","country":"United States","icao":"KCLT","lat":"35.2140007019043","lng":"-80.94309997558594","alt":"748","timezone":"-5","dst":"A","tz":"America/New_York","type":"airport","source":"OurAirports"},"dstAirport":{"airportId":"1881","name":"Daniel Oduber Quiros International Airport","city":"Liberia","country":"Costa Rica","icao":"MRLB","lat":"10.5933","lng":"-85.544403","alt":"270","timezone":"-6","dst":"U","tz":"America/Costa_Rica","type":"airport","source":"OurAirports"}},{"airline":"AA","airlineId":"24","srcIata":"CLT","srcAirportId":"3876","dstIata":"MBJ","dstAirportId":"1780","codeshare":"","stops":"0","equipment":"319 321 320","srcAirport":{"airportId":"3876","name":"Charlotte Douglas International Airport","city":"Charlotte","country":"United States","icao":"KCLT","lat":"35.2140007019043","lng":"-80.94309997558594","alt":"748","timezone":"-5","dst":"A","tz":"America/New_York","type":"airport","source":"OurAirports"},"dstAirport":{"airportId":"1780","name":"Sangster International Airport","city":"Montego Bay","country":"Jamaica","icao":"MKJS","lat":"18.503700256347656","lng":"-77.91339874267578","alt":"4","timezone":"-5","dst":"U","tz":"America/Jamaica","type":"airport","source":"OurAirports"}},{"airline":"AA","airlineId":"24","srcIata":"CLT","srcAirportId":"3876","dstIata":"MEX","dstAirportId":"1824","codeshare":"","stops":"0","equipment":"319","srcAirport":{"airportId":"3876","name":"Charlotte Douglas International Airport","city":"Charlotte","country":"United States","icao":"KCLT","lat":"35.2140007019043","lng":"-80.94309997558594","alt":"748","timezone":"-5","dst":"A","tz":"America/New_York","type":"airport","source":"OurAirports"},"dstAirport":{"airportId":"1824","name":"Licenciado Benito Juarez International Airport","city":"Mexico City","country":"Mexico","icao":"MMMX","lat":"19.4363","lng":"-99.072098","alt":"7316","timezone":"-6","dst":"S","tz":"America/Mexico_City","type":"airport","source":"OurAirports"}},{"airline":"AA","airlineId":"24","srcIata":"CLT","srcAirportId":"3876","dstIata":"NAS","dstAirportId":"1953","codeshare":"","stops":"0","equipment":"319 737","srcAirport":{"airportId":"3876","name":"Charlotte Douglas International Airport","city":"Charlotte","country":"United States","icao":"KCLT","lat":"35.2140007019043","lng":"-80.94309997558594","alt":"748","timezone":"-5","dst":"A","tz":"America/New_York","type":"airport","source":"OurAirports"},"dstAirport":{"airportId":"1953","name":"Lynden Pindling International Airport","city":"Nassau","country":"Bahamas","icao":"MYNN","lat":"25.0389995575","lng":"-77.46620178219999","alt":"16","timezone":"-5","dst":"U","tz":"America/Nassau","type":"airport","source":"OurAirports"}},{"airline":"AA","airlineId":"24","srcIata":"CLT","srcAirportId":"3876","dstIata":"PLS","dstAirportId":"1754","codeshare":"","stops":"0","equipment":"321","srcAirport":{"airportId":"3876","name":"Charlotte Douglas International Airport","city":"Charlotte","country":"United States","icao":"KCLT","lat":"35.2140007019043","lng":"-80.94309997558594","alt":"748","timezone":"-5","dst":"A","tz":"America/New_York","type":"airport","source":"OurAirports"},"dstAirport":{"airportId":"1754","name":"Providenciales Airport","city":"Providenciales","country":"Turks and Caicos Islands","icao":"MBPV","lat":"21.77359962463379","lng":"-72.26589965820312","alt":"15","timezone":"-4","dst":"U","tz":"America/Grand_Turk","type":"airport","source":"OurAirports"}},{"airline":"AA","airlineId":"24","srcIata":"CLT","srcAirportId":"3876","dstIata":"PUJ","dstAirportId":"1760","codeshare":"","stops":"0","equipment":"319 757 321 320","srcAirport":{"airportId":"3876","name":"Charlotte Douglas International Airport","city":"Charlotte","country":"United States","icao":"KCLT","lat":"35.2140007019043","lng":"-80.94309997558594","alt":"748","timezone":"-5","dst":"A","tz":"America/New_York","type":"airport","source":"OurAirports"},"dstAirport":{"airportId":"1760","name":"Punta Cana International Airport","city":"Punta Cana","country":"Dominican Republic","icao":"MDPC","lat":"18.567399978599997","lng":"-68.36340332030001","alt":"47","timezone":"-4","dst":"U","tz":"America/Santo_Domingo","type":"airport","source":"OurAirports"}},{"airline":"AA","airlineId":"24","srcIata":"CLT","srcAirportId":"3876","dstIata":"SJD","dstAirportId":"1840","codeshare":"","stops":"0","equipment":"320","srcAirport":{"airportId":"3876","name":"Charlotte Douglas International Airport","city":"Charlotte","country":"United States","icao":"KCLT","lat":"35.2140007019043","lng":"-80.94309997558594","alt":"748","timezone":"-5","dst":"A","tz":"America/New_York","type":"airport","source":"OurAirports"},"dstAirport":{"airportId":"1840","name":"Los Cabos International Airport","city":"San Jose Del Cabo","country":"Mexico","icao":"MMSD","lat":"23.15180015563965","lng":"-109.72100067138672","alt":"374","timezone":"-7","dst":"S","tz":"America/Mazatlan","type":"airport","source":"OurAirports"}},{"airline":"AA","airlineId":"24","srcIata":"CLT","srcAirportId":"3876","dstIata":"SJO","dstAirportId":"1885","codeshare":"","stops":"0","equipment":"319","srcAirport":{"airportId":"3876","name":"Charlotte Douglas International Airport","city":"Charlotte","country":"United States","icao":"KCLT","lat":"35.2140007019043","lng":"-80.94309997558594","alt":"748","timezone":"-5","dst":"A","tz":"America/New_York","type":"airport","source":"OurAirports"},"dstAirport":{"airportId":"1885","name":"Juan Santamaria International Airport","city":"San Jose","country":"Costa Rica","icao":"MROC","lat":"9.993860244750977","lng":"-84.20880126953125","alt":"3021","timezone":"-6","dst":"U","tz":"America/Costa_Rica","type":"airport","source":"OurAirports"}},{"airline":"AA","airlineId":"24","srcIata":"CLT","srcAirportId":"3876","dstIata":"SJU","dstAirportId":"2890","codeshare":"","stops":"0","equipment":"321","srcAirport":{"airportId":"3876","name":"Charlotte Douglas International Airport","city":"Charlotte","country":"United States","icao":"KCLT","lat":"35.2140007019043","lng":"-80.94309997558594","alt":"748","timezone":"-5","dst":"A","tz":"America/New_York","type":"airport","source":"OurAirports"},"dstAirport":{"airportId":"2890","name":"Luis Munoz Marin International Airport","city":"San Juan","country":"Puerto Rico","icao":"TJSJ","lat":"18.4393997192","lng":"-66.0018005371","alt":"9","timezone":"-4","dst":"U","tz":"America/Puerto_Rico","type":"airport","source":"OurAirports"}},{"airline":"AA","airlineId":"24","srcIata":"CLT","srcAirportId":"3876","dstIata":"STT","dstAirportId":"2883","codeshare":"","stops":"0","equipment":"757 767","srcAirport":{"airportId":"3876","name":"Charlotte Douglas International Airport","city":"Charlotte","country":"United States","icao":"KCLT","lat":"35.2140007019043","lng":"-80.94309997558594","alt":"748","timezone":"-5","dst":"A","tz":"America/New_York","type":"airport","source":"OurAirports"},"dstAirport":{"airportId":"2883","name":"Cyril E. King Airport","city":"St. Thomas","country":"Virgin Islands","icao":"TIST","lat":"18.337299346923828","lng":"-64.97339630126953","alt":"23","timezone":"-4","dst":"U","tz":"America/St_Thomas","type":"airport","source":"OurAirports"}},{"airline":"AA","airlineId":"24","srcIata":"CLT","srcAirportId":"3876","dstIata":"SXM","dstAirportId":"2899","codeshare":"","stops":"0","equipment":"757 319","srcAirport":{"airportId":"3876","name":"Charlotte Douglas International Airport","city":"Charlotte","country":"United States","icao":"KCLT","lat":"35.2140007019043","lng":"-80.94309997558594","alt":"748","timezone":"-5","dst":"A","tz":"America/New_York","type":"airport","source":"OurAirports"},"dstAirport":{"airportId":"2899","name":"Princess Juliana International Airport","city":"Philipsburg","country":"Netherlands Antilles","icao":"TNCM","lat":"18.041000366200002","lng":"-63.1088981628","alt":"13","timezone":"-4","dst":"U","tz":"America/Curacao","type":"airport","source":"OurAirports"}},{"airline":"AA","airlineId":"24","srcIata":"CLT","srcAirportId":"3876","dstIata":"UVF","dstAirportId":"2894","codeshare":"","stops":"0","equipment":"320 319","srcAirport":{"airportId":"3876","name":"Charlotte Douglas International Airport","city":"Charlotte","country":"United States","icao":"KCLT","lat":"35.2140007019043","lng":"-80.94309997558594","alt":"748","timezone":"-5","dst":"A","tz":"America/New_York","type":"airport","source":"OurAirports"},"dstAirport":{"airportId":"2894","name":"Hewanorra International Airport","city":"Hewandorra","country":"Saint Lucia","icao":"TLPL","lat":"13.7332","lng":"-60.952599","alt":"14","timezone":"-4","dst":"U","tz":"America/St_Lucia","type":"airport","source":"OurAirports"}},{"airline":"AA","airlineId":"24","srcIata":"CLT","srcAirportId":"3876","dstIata":"YOW","dstAirportId":"100","codeshare":"Y","stops":"0","equipment":"CRJ","srcAirport":{"airportId":"3876","name":"Charlotte Douglas International Airport","city":"Charlotte","country":"United States","icao":"KCLT","lat":"35.2140007019043","lng":"-80.94309997558594","alt":"748","timezone":"-5","dst":"A","tz":"America/New_York","type":"airport","source":"OurAirports"},"dstAirport":{"airportId":"100","name":"Ottawa Macdonald-Cartier International Airport","city":"Ottawa","country":"Canada","icao":"CYOW","lat":"45.3224983215332","lng":"-75.66919708251953","alt":"374","timezone":"-5","dst":"A","tz":"America/Toronto","type":"airport","source":"OurAirports"}},{"airline":"AA","airlineId":"24","srcIata":"CLT","srcAirportId":"3876","dstIata":"YUL","dstAirportId":"146","codeshare":"Y","stops":"0","equipment":"CRJ","srcAirport":{"airportId":"3876","name":"Charlotte Douglas International Airport","city":"Charlotte","country":"United States","icao":"KCLT","lat":"35.2140007019043","lng":"-80.94309997558594","alt":"748","timezone":"-5","dst":"A","tz":"America/New_York","type":"airport","source":"OurAirports"},"dstAirport":{"airportId":"146","name":"Montreal / Pierre Elliott Trudeau International Airport","city":"Montreal","country":"Canada","icao":"CYUL","lat":"45.4706001282","lng":"-73.7407989502","alt":"118","timezone":"-5","dst":"A","tz":"America/Toronto","type":"airport","source":"OurAirports"}},{"airline":"AA","airlineId":"24","srcIata":"CLT","srcAirportId":"3876","dstIata":"YYZ","dstAirportId":"193","codeshare":"Y","stops":"0","equipment":"E75 CRJ","srcAirport":{"airportId":"3876","name":"Charlotte Douglas International Airport","city":"Charlotte","country":"United States","icao":"KCLT","lat":"35.2140007019043","lng":"-80.94309997558594","alt":"748","timezone":"-5","dst":"A","tz":"America/New_York","type":"airport","source":"OurAirports"},"dstAirport":{"airportId":"193","name":"Lester B. Pearson International Airport","city":"Toronto","country":"Canada","icao":"CYYZ","lat":"43.6772003174","lng":"-79.63059997559999","alt":"569","timezone":"-5","dst":"A","tz":"America/Toronto","type":"airport","source":"OurAirports"}},{"airline":"AA","airlineId":"24","srcIata":"DCA","srcAirportId":"3520","dstIata":"NAS","dstAirportId":"1953","codeshare":"","stops":"0","equipment":"319","srcAirport":{"airportId":"3520","name":"Ronald Reagan Washington National Airport","city":"Washington","country":"United States","icao":"KDCA","lat":"38.8521","lng":"-77.037697","alt":"15","timezone":"-5","dst":"A","tz":"America/New_York","type":"airport","source":"OurAirports"},"dstAirport":{"airportId":"1953","name":"Lynden Pindling International Airport","city":"Nassau","country":"Bahamas","icao":"MYNN","lat":"25.0389995575","lng":"-77.46620178219999","alt":"16","timezone":"-5","dst":"U","tz":"America/Nassau","type":"airport","source":"OurAirports"}},{"airline":"AA","airlineId":"24","srcIata":"DCA","srcAirportId":"3520","dstIata":"YHZ","dstAirportId":"73","codeshare":"Y","stops":"0","equipment":"CRJ","srcAirport":{"airportId":"3520","name":"Ronald Reagan Washington National Airport","city":"Washington","country":"United States","icao":"KDCA","lat":"38.8521","lng":"-77.037697","alt":"15","timezone":"-5","dst":"A","tz":"America/New_York","type":"airport","source":"OurAirports"},"dstAirport":{"airportId":"73","name":"Halifax / Stanfield International Airport","city":"Halifax","country":"Canada","icao":"CYHZ","lat":"44.8807983398","lng":"-63.5085983276","alt":"477","timezone":"-4","dst":"A","tz":"America/Halifax","type":"airport","source":"OurAirports"}},{"airline":"AA","airlineId":"24","srcIata":"DCA","srcAirportId":"3520","dstIata":"YUL","dstAirportId":"146","codeshare":"Y","stops":"0","equipment":"CRJ","srcAirport":{"airportId":"3520","name":"Ronald Reagan Washington National Airport","city":"Washington","country":"United States","icao":"KDCA","lat":"38.8521","lng":"-77.037697","alt":"15","timezone":"-5","dst":"A","tz":"America/New_York","type":"airport","source":"OurAirports"},"dstAirport":{"airportId":"146","name":"Montreal / Pierre Elliott Trudeau International Airport","city":"Montreal","country":"Canada","icao":"CYUL","lat":"45.4706001282","lng":"-73.7407989502","alt":"118","timezone":"-5","dst":"A","tz":"America/Toronto","type":"airport","source":"OurAirports"}},{"airline":"AA","airlineId":"24","srcIata":"DCA","srcAirportId":"3520","dstIata":"YYZ","dstAirportId":"193","codeshare":"Y","stops":"0","equipment":"CRJ","srcAirport":{"airportId":"3520","name":"Ronald Reagan Washington National Airport","city":"Washington","country":"United States","icao":"KDCA","lat":"38.8521","lng":"-77.037697","alt":"15","timezone":"-5","dst":"A","tz":"America/New_York","type":"airport","source":"OurAirports"},"dstAirport":{"airportId":"193","name":"Lester B. Pearson International Airport","city":"Toronto","country":"Canada","icao":"CYYZ","lat":"43.6772003174","lng":"-79.63059997559999","alt":"569","timezone":"-5","dst":"A","tz":"America/Toronto","type":"airport","source":"OurAirports"}},{"airline":"AA","airlineId":"24","srcIata":"DEN","srcAirportId":"3751","dstIata":"LHR","dstAirportId":"507","codeshare":"Y","stops":"0","equipment":"777","srcAirport":{"airportId":"3751","name":"Denver International Airport","city":"Denver","country":"United States","icao":"KDEN","lat":"39.861698150635","lng":"-104.672996521","alt":"5431","timezone":"-7","dst":"A","tz":"America/Denver","type":"airport","source":"OurAirports"},"dstAirport":{"airportId":"507","name":"London Heathrow Airport","city":"London","country":"United Kingdom","icao":"EGLL","lat":"51.4706","lng":"-0.461941","alt":"83","timezone":"0","dst":"E","tz":"Europe/London","type":"airport","source":"OurAirports"}},{"airline":"AA","airlineId":"24","srcIata":"DFW","srcAirportId":"3670","dstIata":"AGU","dstAirportId":"1785","codeshare":"Y","stops":"0","equipment":"ER4","srcAirport":{"airportId":"3670","name":"Dallas Fort Worth International Airport","city":"Dallas-Fort Worth","country":"United States","icao":"KDFW","lat":"32.896801","lng":"-97.038002","alt":"607","timezone":"-6","dst":"A","tz":"America/Chicago","type":"airport","source":"OurAirports"},"dstAirport":{"airportId":"1785","name":"Jesús Terán Paredo International Airport","city":"Aguascalientes","country":"Mexico","icao":"MMAS","lat":"21.705601","lng":"-102.318001","alt":"6112","timezone":"-6","dst":"S","tz":"America/Mexico_City","type":"airport","source":"OurAirports"}},{"airline":"AA","airlineId":"24","srcIata":"DFW","srcAirportId":"3670","dstIata":"BJX","dstAirportId":"1815","codeshare":"","stops":"0","equipment":"319","srcAirport":{"airportId":"3670","name":"Dallas Fort Worth International Airport","city":"Dallas-Fort Worth","country":"United States","icao":"KDFW","lat":"32.896801","lng":"-97.038002","alt":"607","timezone":"-6","dst":"A","tz":"America/Chicago","type":"airport","source":"OurAirports"},"dstAirport":{"airportId":"1815","name":"Del Bajío International Airport","city":"Del Bajio","country":"Mexico","icao":"MMLO","lat":"20.9935","lng":"-101.481003","alt":"5956","timezone":"-6","dst":"S","tz":"America/Mexico_City","type":"airport","source":"OurAirports"}},{"airline":"AA","airlineId":"24","srcIata":"DFW","srcAirportId":"3670","dstIata":"BNE","dstAirportId":"3320","codeshare":"Y","stops":"0","equipment":"744","srcAirport":{"airportId":"3670","name":"Dallas Fort Worth International Airport","city":"Dallas-Fort Worth","country":"United States","icao":"KDFW","lat":"32.896801","lng":"-97.038002","alt":"607","timezone":"-6","dst":"A","tz":"America/Chicago","type":"airport","source":"OurAirports"},"dstAirport":{"airportId":"3320","name":"Brisbane International Airport","city":"Brisbane","country":"Australia","icao":"YBBN","lat":"-27.384199142456055","lng":"153.11700439453125","alt":"13","timezone":"10","dst":"N","tz":"Australia/Brisbane","type":"airport","source":"OurAirports"}},{"airline":"AA","airlineId":"24","srcIata":"DFW","srcAirportId":"3670","dstIata":"BOG","dstAirportId":"2709","codeshare":"","stops":"0","equipment":"319","srcAirport":{"airportId":"3670","name":"Dallas Fort Worth International Airport","city":"Dallas-Fort Worth","country":"United States","icao":"KDFW","lat":"32.896801","lng":"-97.038002","alt":"607","timezone":"-6","dst":"A","tz":"America/Chicago","type":"airport","source":"OurAirports"},"dstAirport":{"airportId":"2709","name":"El Dorado International Airport","city":"Bogota","country":"Colombia","icao":"SKBO","lat":"4.70159","lng":"-74.1469","alt":"8361","timezone":"-5","dst":"U","tz":"America/Bogota","type":"airport","source":"OurAirports"}},{"airline":"AA","airlineId":"24","srcIata":"DFW","srcAirportId":"3670","dstIata":"BZE","dstAirportId":"1957","codeshare":"","stops":"0","equipment":"738","srcAirport":{"airportId":"3670","name":"Dallas Fort Worth International Airport","city":"Dallas-Fort Worth","country":"United States","icao":"KDFW","lat":"32.896801","lng":"-97.038002","alt":"607","timezone":"-6","dst":"A","tz":"America/Chicago","type":"airport","source":"OurAirports"},"dstAirport":{"airportId":"1957","name":"Philip S. W. Goldson International Airport","city":"Belize City","country":"Belize","icao":"MZBZ","lat":"17.539100646972656","lng":"-88.30819702148438","alt":"15","timezone":"-6","dst":"U","tz":"America/Belize","type":"airport","source":"OurAirports"}},{"airline":"AA","airlineId":"24","srcIata":"DFW","srcAirportId":"3670","dstIata":"CCS","dstAirportId":"2851","codeshare":"","stops":"0","equipment":"738","srcAirport":{"airportId":"3670","name":"Dallas Fort Worth International Airport","city":"Dallas-Fort Worth","country":"United States","icao":"KDFW","lat":"32.896801","lng":"-97.038002","alt":"607","timezone":"-6","dst":"A","tz":"America/Chicago","type":"airport","source":"OurAirports"},"dstAirport":{"airportId":"2851","name":"Simón Bolívar International Airport","city":"Caracas","country":"Venezuela","icao":"SVMI","lat":"10.601194","lng":"-66.991222","alt":"234","timezone":"-4","dst":"U","tz":"America/Caracas","type":"airport","source":"OurAirports"}},{"airline":"AA","airlineId":"24","srcIata":"DFW","srcAirportId":"3670","dstIata":"CDG","dstAirportId":"1382","codeshare":"","stops":"0","equipment":"763 777","srcAirport":{"airportId":"3670","name":"Dallas Fort Worth International Airport","city":"Dallas-Fort Worth","country":"United States","icao":"KDFW","lat":"32.896801","lng":"-97.038002","alt":"607","timezone":"-6","dst":"A","tz":"America/Chicago","type":"airport","source":"OurAirports"},"dstAirport":{"airportId":"1382","name":"Charles de Gaulle International Airport","city":"Paris","country":"France","icao":"LFPG","lat":"49.012798","lng":"2.55","alt":"392","timezone":"1","dst":"E","tz":"Europe/Paris","type":"airport","source":"OurAirports"}},{"airline":"AA","airlineId":"24","srcIata":"DFW","srcAirportId":"3670","dstIata":"CUN","dstAirportId":"1852","codeshare":"","stops":"0","equipment":"738 757","srcAirport":{"airportId":"3670","name":"Dallas Fort Worth International Airport","city":"Dallas-Fort Worth","country":"United States","icao":"KDFW","lat":"32.896801","lng":"-97.038002","alt":"607","timezone":"-6","dst":"A","tz":"America/Chicago","type":"airport","source":"OurAirports"},"dstAirport":{"airportId":"1852","name":"Cancún International Airport","city":"Cancun","country":"Mexico","icao":"MMUN","lat":"21.036500930800003","lng":"-86.8770980835","alt":"22","timezone":"-5","dst":"S","tz":"America/Cancun","type":"airport","source":"OurAirports"}},{"airline":"AA","airlineId":"24","srcIata":"DFW","srcAirportId":"3670","dstIata":"CUU","dstAirportId":"1797","codeshare":"Y","stops":"0","equipment":"ERD ER4","srcAirport":{"airportId":"3670","name":"Dallas Fort Worth International Airport","city":"Dallas-Fort Worth","country":"United States","icao":"KDFW","lat":"32.896801","lng":"-97.038002","alt":"607","timezone":"-6","dst":"A","tz":"America/Chicago","type":"airport","source":"OurAirports"},"dstAirport":{"airportId":"1797","name":"General Roberto Fierro Villalobos International Airport","city":"Chihuahua","country":"Mexico","icao":"MMCU","lat":"28.702899932900003","lng":"-105.964996338","alt":"4462","timezone":"-7","dst":"S","tz":"America/Mazatlan","type":"airport","source":"OurAirports"}},{"airline":"AA","airlineId":"24","srcIata":"DFW","srcAirportId":"3670","dstIata":"CZM","dstAirportId":"1800","codeshare":"","stops":"0","equipment":"738","srcAirport":{"airportId":"3670","name":"Dallas Fort Worth International Airport","city":"Dallas-Fort Worth","country":"United States","icao":"KDFW","lat":"32.896801","lng":"-97.038002","alt":"607","timezone":"-6","dst":"A","tz":"America/Chicago","type":"airport","source":"OurAirports"},"dstAirport":{"airportId":"1800","name":"Cozumel International Airport","city":"Cozumel","country":"Mexico","icao":"MMCZ","lat":"20.52239990234375","lng":"-86.92559814453125","alt":"15","timezone":"-5","dst":"S","tz":"America/Cancun","type":"airport","source":"OurAirports"}},{"airline":"AA","airlineId":"24","srcIata":"DFW","srcAirportId":"3670","dstIata":"EZE","dstAirportId":"3988","codeshare":"","stops":"0","equipment":"777","srcAirport":{"airportId":"3670","name":"Dallas Fort Worth International Airport","city":"Dallas-Fort Worth","country":"United States","icao":"KDFW","lat":"32.896801","lng":"-97.038002","alt":"607","timezone":"-6","dst":"A","tz":"America/Chicago","type":"airport","source":"OurAirports"},"dstAirport":{"airportId":"3988","name":"Ministro Pistarini International Airport","city":"Buenos Aires","country":"Argentina","icao":"SAEZ","lat":"-34.8222","lng":"-58.5358","alt":"67","timezone":"-3","dst":"N","tz":"America/Buenos_Aires","type":"airport","source":"OurAirports"}},{"airline":"AA","airlineId":"24","srcIata":"DFW","srcAirportId":"3670","dstIata":"FRA","dstAirportId":"340","codeshare":"","stops":"0","equipment":"777","srcAirport":{"airportId":"3670","name":"Dallas Fort Worth International Airport","city":"Dallas-Fort Worth","country":"United States","icao":"KDFW","lat":"32.896801","lng":"-97.038002","alt":"607","timezone":"-6","dst":"A","tz":"America/Chicago","type":"airport","source":"OurAirports"},"dstAirport":{"airportId":"340","name":"Frankfurt am Main Airport","city":"Frankfurt","country":"Germany","icao":"EDDF","lat":"50.033333","lng":"8.570556","alt":"364","timezone":"1","dst":"E","tz":"Europe/Berlin","type":"airport","source":"OurAirports"}},{"airline":"AA","airlineId":"24","srcIata":"DFW","srcAirportId":"3670","dstIata":"GDL","dstAirportId":"1804","codeshare":"","stops":"0","equipment":"M80","srcAirport":{"airportId":"3670","name":"Dallas Fort Worth International Airport","city":"Dallas-Fort Worth","country":"United States","icao":"KDFW","lat":"32.896801","lng":"-97.038002","alt":"607","timezone":"-6","dst":"A","tz":"America/Chicago","type":"airport","source":"OurAirports"},"dstAirport":{"airportId":"1804","name":"Don Miguel Hidalgo Y Costilla International Airport","city":"Guadalajara","country":"Mexico","icao":"MMGL","lat":"20.521799087524414","lng":"-103.31099700927734","alt":"5016","timezone":"-6","dst":"S","tz":"America/Mexico_City","type":"airport","source":"OurAirports"}},{"airline":"AA","airlineId":"24","srcIata":"DFW","srcAirportId":"3670","dstIata":"GIG","dstAirportId":"2560","codeshare":"","stops":"0","equipment":"763","srcAirport":{"airportId":"3670","name":"Dallas Fort Worth International Airport","city":"Dallas-Fort Worth","country":"United States","icao":"KDFW","lat":"32.896801","lng":"-97.038002","alt":"607","timezone":"-6","dst":"A","tz":"America/Chicago","type":"airport","source":"OurAirports"},"dstAirport":{"airportId":"2560","name":"Rio Galeão – Tom Jobim International Airport","city":"Rio De Janeiro","country":"Brazil","icao":"SBGL","lat":"-22.8099994659","lng":"-43.2505569458","alt":"28","timezone":"-3","dst":"S","tz":"America/Sao_Paulo","type":"airport","source":"OurAirports"}},{"airline":"AA","airlineId":"24","srcIata":"DFW","srcAirportId":"3670","dstIata":"GRU","dstAirportId":"2564","codeshare":"","stops":"0","equipment":"77W","srcAirport":{"airportId":"3670","name":"Dallas Fort Worth International Airport","city":"Dallas-Fort Worth","country":"United States","icao":"KDFW","lat":"32.896801","lng":"-97.038002","alt":"607","timezone":"-6","dst":"A","tz":"America/Chicago","type":"airport","source":"OurAirports"},"dstAirport":{"airportId":"2564","name":"Guarulhos - Governador André Franco Montoro International Airport","city":"Sao Paulo","country":"Brazil","icao":"SBGR","lat":"-23.435556411743164","lng":"-46.47305679321289","alt":"2459","timezone":"-3","dst":"S","tz":"America/Sao_Paulo","type":"airport","source":"OurAirports"}},{"airline":"AA","airlineId":"24","srcIata":"DFW","srcAirportId":"3670","dstIata":"GUA","dstAirportId":"1767","codeshare":"","stops":"0","equipment":"738","srcAirport":{"airportId":"3670","name":"Dallas Fort Worth International Airport","city":"Dallas-Fort Worth","country":"United States","icao":"KDFW","lat":"32.896801","lng":"-97.038002","alt":"607","timezone":"-6","dst":"A","tz":"America/Chicago","type":"airport","source":"OurAirports"},"dstAirport":{"airportId":"1767","name":"La Aurora Airport","city":"Guatemala City","country":"Guatemala","icao":"MGGT","lat":"14.5833","lng":"-90.527496","alt":"4952","timezone":"-6","dst":"U","tz":"America/Guatemala","type":"airport","source":"OurAirports"}},{"airline":"AA","airlineId":"24","srcIata":"DFW","srcAirportId":"3670","dstIata":"ICN","dstAirportId":"3930","codeshare":"","stops":"0","equipment":"777","srcAirport":{"airportId":"3670","name":"Dallas Fort Worth International Airport","city":"Dallas-Fort Worth","country":"United States","icao":"KDFW","lat":"32.896801","lng":"-97.038002","alt":"607","timezone":"-6","dst":"A","tz":"America/Chicago","type":"airport","source":"OurAirports"},"dstAirport":{"airportId":"3930","name":"Incheon International Airport","city":"Seoul","country":"South Korea","icao":"RKSI","lat":"37.46910095214844","lng":"126.45099639892578","alt":"23","timezone":"9","dst":"U","tz":"Asia/Seoul","type":"airport","source":"OurAirports"}},{"airline":"AA","airlineId":"24","srcIata":"DFW","srcAirportId":"3670","dstIata":"LHR","dstAirportId":"507","codeshare":"","stops":"0","equipment":"77W 777","srcAirport":{"airportId":"3670","name":"Dallas Fort Worth International Airport","city":"Dallas-Fort Worth","country":"United States","icao":"KDFW","lat":"32.896801","lng":"-97.038002","alt":"607","timezone":"-6","dst":"A","tz":"America/Chicago","type":"airport","source":"OurAirports"},"dstAirport":{"airportId":"507","name":"London Heathrow Airport","city":"London","country":"United Kingdom","icao":"EGLL","lat":"51.4706","lng":"-0.461941","alt":"83","timezone":"0","dst":"E","tz":"Europe/London","type":"airport","source":"OurAirports"}},{"airline":"AA","airlineId":"24","srcIata":"DFW","srcAirportId":"3670","dstIata":"LIM","dstAirportId":"2789","codeshare":"","stops":"0","equipment":"763","srcAirport":{"airportId":"3670","name":"Dallas Fort Worth International Airport","city":"Dallas-Fort Worth","country":"United States","icao":"KDFW","lat":"32.896801","lng":"-97.038002","alt":"607","timezone":"-6","dst":"A","tz":"America/Chicago","type":"airport","source":"OurAirports"},"dstAirport":{"airportId":"2789","name":"Jorge Chávez International Airport","city":"Lima","country":"Peru","icao":"SPIM","lat":"-12.0219","lng":"-77.114305","alt":"113","timezone":"-5","dst":"U","tz":"America/Lima","type":"airport","source":"OurAirports"}},{"airline":"AA","airlineId":"24","srcIata":"DFW","srcAirportId":"3670","dstIata":"LIR","dstAirportId":"1881","codeshare":"","stops":"0","equipment":"738","srcAirport":{"airportId":"3670","name":"Dallas Fort Worth International Airport","city":"Dallas-Fort Worth","country":"United States","icao":"KDFW","lat":"32.896801","lng":"-97.038002","alt":"607","timezone":"-6","dst":"A","tz":"America/Chicago","type":"airport","source":"OurAirports"},"dstAirport":{"airportId":"1881","name":"Daniel Oduber Quiros International Airport","city":"Liberia","country":"Costa Rica","icao":"MRLB","lat":"10.5933","lng":"-85.544403","alt":"270","timezone":"-6","dst":"U","tz":"America/Costa_Rica","type":"airport","source":"OurAirports"}},{"airline":"AA","airlineId":"24","srcIata":"DFW","srcAirportId":"3670","dstIata":"MAD","dstAirportId":"1229","codeshare":"","stops":"0","equipment":"777","srcAirport":{"airportId":"3670","name":"Dallas Fort Worth International Airport","city":"Dallas-Fort Worth","country":"United States","icao":"KDFW","lat":"32.896801","lng":"-97.038002","alt":"607","timezone":"-6","dst":"A","tz":"America/Chicago","type":"airport","source":"OurAirports"},"dstAirport":{"airportId":"1229","name":"Adolfo Suárez Madrid–Barajas Airport","city":"Madrid","country":"Spain","icao":"LEMD","lat":"40.471926","lng":"-3.56264","alt":"1998","timezone":"1","dst":"E","tz":"Europe/Madrid","type":"airport","source":"OurAirports"}},{"airline":"AA","airlineId":"24","srcIata":"DFW","srcAirportId":"3670","dstIata":"MBJ","dstAirportId":"1780","codeshare":"","stops":"0","equipment":"738","srcAirport":{"airportId":"3670","name":"Dallas Fort Worth International Airport","city":"Dallas-Fort Worth","country":"United States","icao":"KDFW","lat":"32.896801","lng":"-97.038002","alt":"607","timezone":"-6","dst":"A","tz":"America/Chicago","type":"airport","source":"OurAirports"},"dstAirport":{"airportId":"1780","name":"Sangster International Airport","city":"Montego Bay","country":"Jamaica","icao":"MKJS","lat":"18.503700256347656","lng":"-77.91339874267578","alt":"4","timezone":"-5","dst":"U","tz":"America/Jamaica","type":"airport","source":"OurAirports"}},{"airline":"AA","airlineId":"24","srcIata":"DFW","srcAirportId":"3670","dstIata":"MEX","dstAirportId":"1824","codeshare":"","stops":"0","equipment":"M80 M83","srcAirport":{"airportId":"3670","name":"Dallas Fort Worth International Airport","city":"Dallas-Fort Worth","country":"United States","icao":"KDFW","lat":"32.896801","lng":"-97.038002","alt":"607","timezone":"-6","dst":"A","tz":"America/Chicago","type":"airport","source":"OurAirports"},"dstAirport":{"airportId":"1824","name":"Licenciado Benito Juarez International Airport","city":"Mexico City","country":"Mexico","icao":"MMMX","lat":"19.4363","lng":"-99.072098","alt":"7316","timezone":"-6","dst":"S","tz":"America/Mexico_City","type":"airport","source":"OurAirports"}},{"airline":"AA","airlineId":"24","srcIata":"DFW","srcAirportId":"3670","dstIata":"MLM","dstAirportId":"1821","codeshare":"Y","stops":"0","equipment":"ER4","srcAirport":{"airportId":"3670","name":"Dallas Fort Worth International Airport","city":"Dallas-Fort Worth","country":"United States","icao":"KDFW","lat":"32.896801","lng":"-97.038002","alt":"607","timezone":"-6","dst":"A","tz":"America/Chicago","type":"airport","source":"OurAirports"},"dstAirport":{"airportId":"1821","name":"General Francisco J. Mujica International Airport","city":"Morelia","country":"Mexico","icao":"MMMM","lat":"19.849899292","lng":"-101.025001526","alt":"6033","timezone":"-6","dst":"S","tz":"America/Mexico_City","type":"airport","source":"OurAirports"}},{"airline":"AA","airlineId":"24","srcIata":"DFW","srcAirportId":"3670","dstIata":"MTY","dstAirportId":"1825","codeshare":"","stops":"0","equipment":"M80 M83","srcAirport":{"airportId":"3670","name":"Dallas Fort Worth International Airport","city":"Dallas-Fort Worth","country":"United States","icao":"KDFW","lat":"32.896801","lng":"-97.038002","alt":"607","timezone":"-6","dst":"A","tz":"America/Chicago","type":"airport","source":"OurAirports"},"dstAirport":{"airportId":"1825","name":"General Mariano Escobedo International Airport","city":"Monterrey","country":"Mexico","icao":"MMMY","lat":"25.7784996033","lng":"-100.107002258","alt":"1278","timezone":"-6","dst":"S","tz":"America/Mexico_City","type":"airport","source":"OurAirports"}},{"airline":"AA","airlineId":"24","srcIata":"DFW","srcAirportId":"3670","dstIata":"MZT","dstAirportId":"1826","codeshare":"Y","stops":"0","equipment":"ERD ER4","srcAirport":{"airportId":"3670","name":"Dallas Fort Worth International Airport","city":"Dallas-Fort Worth","country":"United States","icao":"KDFW","lat":"32.896801","lng":"-97.038002","alt":"607","timezone":"-6","dst":"A","tz":"America/Chicago","type":"airport","source":"OurAirports"},"dstAirport":{"airportId":"1826","name":"General Rafael Buelna International Airport","city":"Mazatlan","country":"Mexico","icao":"MMMZ","lat":"23.1613998413","lng":"-106.26599884","alt":"38","timezone":"-7","dst":"S","tz":"America/Mazatlan","type":"airport","source":"OurAirports"}},{"airline":"AA","airlineId":"24","srcIata":"DFW","srcAirportId":"3670","dstIata":"NAS","dstAirportId":"1953","codeshare":"","stops":"0","equipment":"738","srcAirport":{"airportId":"3670","name":"Dallas Fort Worth International Airport","city":"Dallas-Fort Worth","country":"United States","icao":"KDFW","lat":"32.896801","lng":"-97.038002","alt":"607","timezone":"-6","dst":"A","tz":"America/Chicago","type":"airport","source":"OurAirports"},"dstAirport":{"airportId":"1953","name":"Lynden Pindling International Airport","city":"Nassau","country":"Bahamas","icao":"MYNN","lat":"25.0389995575","lng":"-77.46620178219999","alt":"16","timezone":"-5","dst":"U","tz":"America/Nassau","type":"airport","source":"OurAirports"}},{"airline":"AA","airlineId":"24","srcIata":"DFW","srcAirportId":"3670","dstIata":"NRT","dstAirportId":"2279","codeshare":"","stops":"0","equipment":"777","srcAirport":{"airportId":"3670","name":"Dallas Fort Worth International Airport","city":"Dallas-Fort Worth","country":"United States","icao":"KDFW","lat":"32.896801","lng":"-97.038002","alt":"607","timezone":"-6","dst":"A","tz":"America/Chicago","type":"airport","source":"OurAirports"},"dstAirport":{"airportId":"2279","name":"Narita International Airport","city":"Tokyo","country":"Japan","icao":"RJAA","lat":"35.7647018433","lng":"140.386001587","alt":"141","timezone":"9","dst":"U","tz":"Asia/Tokyo","type":"airport","source":"OurAirports"}},{"airline":"AA","airlineId":"24","srcIata":"DFW","srcAirportId":"3670","dstIata":"PBC","dstAirportId":"1831","codeshare":"Y","stops":"0","equipment":"ERD","srcAirport":{"airportId":"3670","name":"Dallas Fort Worth International Airport","city":"Dallas-Fort Worth","country":"United States","icao":"KDFW","lat":"32.896801","lng":"-97.038002","alt":"607","timezone":"-6","dst":"A","tz":"America/Chicago","type":"airport","source":"OurAirports"},"dstAirport":{"airportId":"1831","name":"Hermanos Serdán International Airport","city":"Puebla","country":"Mexico","icao":"MMPB","lat":"19.1581001282","lng":"-98.3713989258","alt":"7361","timezone":"-6","dst":"S","tz":"America/Mexico_City","type":"airport","source":"OurAirports"}},{"airline":"AA","airlineId":"24","srcIata":"DFW","srcAirportId":"3670","dstIata":"PLS","dstAirportId":"1754","codeshare":"","stops":"0","equipment":"738","srcAirport":{"airportId":"3670","name":"Dallas Fort Worth International Airport","city":"Dallas-Fort Worth","country":"United States","icao":"KDFW","lat":"32.896801","lng":"-97.038002","alt":"607","timezone":"-6","dst":"A","tz":"America/Chicago","type":"airport","source":"OurAirports"},"dstAirport":{"airportId":"1754","name":"Providenciales Airport","city":"Providenciales","country":"Turks and Caicos Islands","icao":"MBPV","lat":"21.77359962463379","lng":"-72.26589965820312","alt":"15","timezone":"-4","dst":"U","tz":"America/Grand_Turk","type":"airport","source":"OurAirports"}},{"airline":"AA","airlineId":"24","srcIata":"DFW","srcAirportId":"3670","dstIata":"PTY","dstAirportId":"1871","codeshare":"","stops":"0","equipment":"738","srcAirport":{"airportId":"3670","name":"Dallas Fort Worth International Airport","city":"Dallas-Fort Worth","country":"United States","icao":"KDFW","lat":"32.896801","lng":"-97.038002","alt":"607","timezone":"-6","dst":"A","tz":"America/Chicago","type":"airport","source":"OurAirports"},"dstAirport":{"airportId":"1871","name":"Tocumen International Airport","city":"Panama City","country":"Panama","icao":"MPTO","lat":"9.0713596344","lng":"-79.3834991455","alt":"135","timezone":"-5","dst":"U","tz":"America/Panama","type":"airport","source":"OurAirports"}},{"airline":"AA","airlineId":"24","srcIata":"DFW","srcAirportId":"3670","dstIata":"PVR","dstAirportId":"1836","codeshare":"","stops":"0","equipment":"M80 M83","srcAirport":{"airportId":"3670","name":"Dallas Fort Worth International Airport","city":"Dallas-Fort Worth","country":"United States","icao":"KDFW","lat":"32.896801","lng":"-97.038002","alt":"607","timezone":"-6","dst":"A","tz":"America/Chicago","type":"airport","source":"OurAirports"},"dstAirport":{"airportId":"1836","name":"Licenciado Gustavo Díaz Ordaz International Airport","city":"Puerto Vallarta","country":"Mexico","icao":"MMPR","lat":"20.680099487304688","lng":"-105.25399780273438","alt":"23","timezone":"-6","dst":"S","tz":"America/Mexico_City","type":"airport","source":"OurAirports"}},{"airline":"AA","airlineId":"24","srcIata":"DFW","srcAirportId":"3670","dstIata":"QRO","dstAirportId":"1838","codeshare":"Y","stops":"0","equipment":"ERD","srcAirport":{"airportId":"3670","name":"Dallas Fort Worth International Airport","city":"Dallas-Fort Worth","country":"United States","icao":"KDFW","lat":"32.896801","lng":"-97.038002","alt":"607","timezone":"-6","dst":"A","tz":"America/Chicago","type":"airport","source":"OurAirports"},"dstAirport":{"airportId":"1838","name":"Querétaro Intercontinental Airport","city":"Queretaro","country":"Mexico","icao":"MMQT","lat":"20.6173","lng":"-100.185997","alt":"6296","timezone":"-6","dst":"S","tz":"America/Mexico_City","type":"airport","source":"OurAirports"}},{"airline":"AA","airlineId":"24","srcIata":"DFW","srcAirportId":"3670","dstIata":"RTB","dstAirportId":"1774","codeshare":"","stops":"0","equipment":"738","srcAirport":{"airportId":"3670","name":"Dallas Fort Worth International Airport","city":"Dallas-Fort Worth","country":"United States","icao":"KDFW","lat":"32.896801","lng":"-97.038002","alt":"607","timezone":"-6","dst":"A","tz":"America/Chicago","type":"airport","source":"OurAirports"},"dstAirport":{"airportId":"1774","name":"Juan Manuel Galvez International Airport","city":"Roatan","country":"Honduras","icao":"MHRO","lat":"16.316799","lng":"-86.523003","alt":"39","timezone":"-6","dst":"U","tz":"America/Tegucigalpa","type":"airport","source":"OurAirports"}},{"airline":"AA","airlineId":"24","srcIata":"DFW","srcAirportId":"3670","dstIata":"SAL","dstAirportId":"1892","codeshare":"","stops":"0","equipment":"738","srcAirport":{"airportId":"3670","name":"Dallas Fort Worth International Airport","city":"Dallas-Fort Worth","country":"United States","icao":"KDFW","lat":"32.896801","lng":"-97.038002","alt":"607","timezone":"-6","dst":"A","tz":"America/Chicago","type":"airport","source":"OurAirports"},"dstAirport":{"airportId":"1892","name":"Monseñor Óscar Arnulfo Romero International Airport","city":"San Salvador","country":"El Salvador","icao":"MSLP","lat":"13.4409","lng":"-89.055702","alt":"101","timezone":"-6","dst":"U","tz":"America/El_Salvador","type":"airport","source":"OurAirports"}},{"airline":"AA","airlineId":"24","srcIata":"DFW","srcAirportId":"3670","dstIata":"SCL","dstAirportId":"2650","codeshare":"","stops":"0","equipment":"763","srcAirport":{"airportId":"3670","name":"Dallas Fort Worth International Airport","city":"Dallas-Fort Worth","country":"United States","icao":"KDFW","lat":"32.896801","lng":"-97.038002","alt":"607","timezone":"-6","dst":"A","tz":"America/Chicago","type":"airport","source":"OurAirports"},"dstAirport":{"airportId":"2650","name":"Comodoro Arturo Merino Benítez International Airport","city":"Santiago","country":"Chile","icao":"SCEL","lat":"-33.393001556396484","lng":"-70.78579711914062","alt":"1555","timezone":"-4","dst":"S","tz":"America/Santiago","type":"airport","source":"OurAirports"}},{"airline":"AA","airlineId":"24","srcIata":"DFW","srcAirportId":"3670","dstIata":"SJD","dstAirportId":"1840","codeshare":"","stops":"0","equipment":"M80 M83","srcAirport":{"airportId":"3670","name":"Dallas Fort Worth International Airport","city":"Dallas-Fort Worth","country":"United States","icao":"KDFW","lat":"32.896801","lng":"-97.038002","alt":"607","timezone":"-6","dst":"A","tz":"America/Chicago","type":"airport","source":"OurAirports"},"dstAirport":{"airportId":"1840","name":"Los Cabos International Airport","city":"San Jose Del Cabo","country":"Mexico","icao":"MMSD","lat":"23.15180015563965","lng":"-109.72100067138672","alt":"374","timezone":"-7","dst":"S","tz":"America/Mazatlan","type":"airport","source":"OurAirports"}},{"airline":"AA","airlineId":"24","srcIata":"DFW","srcAirportId":"3670","dstIata":"SJO","dstAirportId":"1885","codeshare":"","stops":"0","equipment":"757","srcAirport":{"airportId":"3670","name":"Dallas Fort Worth International Airport","city":"Dallas-Fort Worth","country":"United States","icao":"KDFW","lat":"32.896801","lng":"-97.038002","alt":"607","timezone":"-6","dst":"A","tz":"America/Chicago","type":"airport","source":"OurAirports"},"dstAirport":{"airportId":"1885","name":"Juan Santamaria International Airport","city":"San Jose","country":"Costa Rica","icao":"MROC","lat":"9.993860244750977","lng":"-84.20880126953125","alt":"3021","timezone":"-6","dst":"U","tz":"America/Costa_Rica","type":"airport","source":"OurAirports"}},{"airline":"AA","airlineId":"24","srcIata":"DFW","srcAirportId":"3670","dstIata":"SJU","dstAirportId":"2890","codeshare":"","stops":"0","equipment":"757","srcAirport":{"airportId":"3670","name":"Dallas Fort Worth International Airport","city":"Dallas-Fort Worth","country":"United States","icao":"KDFW","lat":"32.896801","lng":"-97.038002","alt":"607","timezone":"-6","dst":"A","tz":"America/Chicago","type":"airport","source":"OurAirports"},"dstAirport":{"airportId":"2890","name":"Luis Munoz Marin International Airport","city":"San Juan","country":"Puerto Rico","icao":"TJSJ","lat":"18.4393997192","lng":"-66.0018005371","alt":"9","timezone":"-4","dst":"U","tz":"America/Puerto_Rico","type":"airport","source":"OurAirports"}},{"airline":"AA","airlineId":"24","srcIata":"DFW","srcAirportId":"3670","dstIata":"SLP","dstAirportId":"1842","codeshare":"Y","stops":"0","equipment":"ERD","srcAirport":{"airportId":"3670","name":"Dallas Fort Worth International Airport","city":"Dallas-Fort Worth","country":"United States","icao":"KDFW","lat":"32.896801","lng":"-97.038002","alt":"607","timezone":"-6","dst":"A","tz":"America/Chicago","type":"airport","source":"OurAirports"},"dstAirport":{"airportId":"1842","name":"Ponciano Arriaga International Airport","city":"San Luis Potosi","country":"Mexico","icao":"MMSP","lat":"22.254299163800003","lng":"-100.930999756","alt":"6035","timezone":"-6","dst":"S","tz":"America/Mexico_City","type":"airport","source":"OurAirports"}},{"airline":"AA","airlineId":"24","srcIata":"DFW","srcAirportId":"3670","dstIata":"TRC","dstAirportId":"1845","codeshare":"Y","stops":"0","equipment":"ER4","srcAirport":{"airportId":"3670","name":"Dallas Fort Worth International Airport","city":"Dallas-Fort Worth","country":"United States","icao":"KDFW","lat":"32.896801","lng":"-97.038002","alt":"607","timezone":"-6","dst":"A","tz":"America/Chicago","type":"airport","source":"OurAirports"},"dstAirport":{"airportId":"1845","name":"Francisco Sarabia International Airport","city":"Torreon","country":"Mexico","icao":"MMTC","lat":"25.568300247199996","lng":"-103.411003113","alt":"3688","timezone":"-6","dst":"S","tz":"America/Mexico_City","type":"airport","source":"OurAirports"}},{"airline":"AA","airlineId":"24","srcIata":"DFW","srcAirportId":"3670","dstIata":"YEG","dstAirportId":"49","codeshare":"","stops":"0","equipment":"319","srcAirport":{"airportId":"3670","name":"Dallas Fort Worth International Airport","city":"Dallas-Fort Worth","country":"United States","icao":"KDFW","lat":"32.896801","lng":"-97.038002","alt":"607","timezone":"-6","dst":"A","tz":"America/Chicago","type":"airport","source":"OurAirports"},"dstAirport":{"airportId":"49","name":"Edmonton International Airport","city":"Edmonton","country":"Canada","icao":"CYEG","lat":"53.309700012200004","lng":"-113.580001831","alt":"2373","timezone":"-7","dst":"A","tz":"America/Edmonton","type":"airport","source":"OurAirports"}},{"airline":"AA","airlineId":"24","srcIata":"DFW","srcAirportId":"3670","dstIata":"YUL","dstAirportId":"146","codeshare":"","stops":"0","equipment":"738","srcAirport":{"airportId":"3670","name":"Dallas Fort Worth International Airport","city":"Dallas-Fort Worth","country":"United States","icao":"KDFW","lat":"32.896801","lng":"-97.038002","alt":"607","timezone":"-6","dst":"A","tz":"America/Chicago","type":"airport","source":"OurAirports"},"dstAirport":{"airportId":"146","name":"Montreal / Pierre Elliott Trudeau International Airport","city":"Montreal","country":"Canada","icao":"CYUL","lat":"45.4706001282","lng":"-73.7407989502","alt":"118","timezone":"-5","dst":"A","tz":"America/Toronto","type":"airport","source":"OurAirports"}},{"airline":"AA","airlineId":"24","srcIata":"DFW","srcAirportId":"3670","dstIata":"YVR","dstAirportId":"156","codeshare":"","stops":"0","equipment":"738","srcAirport":{"airportId":"3670","name":"Dallas Fort Worth International Airport","city":"Dallas-Fort Worth","country":"United States","icao":"KDFW","lat":"32.896801","lng":"-97.038002","alt":"607","timezone":"-6","dst":"A","tz":"America/Chicago","type":"airport","source":"OurAirports"},"dstAirport":{"airportId":"156","name":"Vancouver International Airport","city":"Vancouver","country":"Canada","icao":"CYVR","lat":"49.193901062","lng":"-123.183998108","alt":"14","timezone":"-8","dst":"A","tz":"America/Vancouver","type":"airport","source":"OurAirports"}},{"airline":"AA","airlineId":"24","srcIata":"DFW","srcAirportId":"3670","dstIata":"YYC","dstAirportId":"178","codeshare":"","stops":"0","equipment":"M80 M83 738","srcAirport":{"airportId":"3670","name":"Dallas Fort Worth International Airport","city":"Dallas-Fort Worth","country":"United States","icao":"KDFW","lat":"32.896801","lng":"-97.038002","alt":"607","timezone":"-6","dst":"A","tz":"America/Chicago","type":"airport","source":"OurAirports"},"dstAirport":{"airportId":"178","name":"Calgary International Airport","city":"Calgary","country":"Canada","icao":"CYYC","lat":"51.113899231","lng":"-114.019996643","alt":"3557","timezone":"-7","dst":"A","tz":"America/Edmonton","type":"airport","source":"OurAirports"}},{"airline":"AA","airlineId":"24","srcIata":"DFW","srcAirportId":"3670","dstIata":"YYZ","dstAirportId":"193","codeshare":"","stops":"0","equipment":"319","srcAirport":{"airportId":"3670","name":"Dallas Fort Worth International Airport","city":"Dallas-Fort Worth","country":"United States","icao":"KDFW","lat":"32.896801","lng":"-97.038002","alt":"607","timezone":"-6","dst":"A","tz":"America/Chicago","type":"airport","source":"OurAirports"},"dstAirport":{"airportId":"193","name":"Lester B. Pearson International Airport","city":"Toronto","country":"Canada","icao":"CYYZ","lat":"43.6772003174","lng":"-79.63059997559999","alt":"569","timezone":"-5","dst":"A","tz":"America/Toronto","type":"airport","source":"OurAirports"}},{"airline":"AA","airlineId":"24","srcIata":"DFW","srcAirportId":"3670","dstIata":"ZCL","dstAirportId":"1855","codeshare":"Y","stops":"0","equipment":"ERD","srcAirport":{"airportId":"3670","name":"Dallas Fort Worth International Airport","city":"Dallas-Fort Worth","country":"United States","icao":"KDFW","lat":"32.896801","lng":"-97.038002","alt":"607","timezone":"-6","dst":"A","tz":"America/Chicago","type":"airport","source":"OurAirports"},"dstAirport":{"airportId":"1855","name":"General Leobardo C. Ruiz International Airport","city":"Zacatecas","country":"Mexico","icao":"MMZC","lat":"22.8971004486","lng":"-102.68699646","alt":"7141","timezone":"-6","dst":"S","tz":"America/Mexico_City","type":"airport","source":"OurAirports"}},{"airline":"AA","airlineId":"24","srcIata":"DTW","srcAirportId":"3645","dstIata":"YUL","dstAirportId":"146","codeshare":"Y","stops":"0","equipment":"330","srcAirport":{"airportId":"3645","name":"Detroit Metropolitan Wayne County Airport","city":"Detroit","country":"United States","icao":"KDTW","lat":"42.212398529052734","lng":"-83.35340118408203","alt":"645","timezone":"-5","dst":"A","tz":"America/New_York","type":"airport","source":"OurAirports"},"dstAirport":{"airportId":"146","name":"Montreal / Pierre Elliott Trudeau International Airport","city":"Montreal","country":"Canada","icao":"CYUL","lat":"45.4706001282","lng":"-73.7407989502","alt":"118","timezone":"-5","dst":"A","tz":"America/Toronto","type":"airport","source":"OurAirports"}},{"airline":"AA","airlineId":"24","srcIata":"EWR","srcAirportId":"3494","dstIata":"HKG","dstAirportId":"3077","codeshare":"Y","stops":"0","equipment":"773","srcAirport":{"airportId":"3494","name":"Newark Liberty International Airport","city":"Newark","country":"United States","icao":"KEWR","lat":"40.692501068115234","lng":"-74.168701171875","alt":"18","timezone":"-5","dst":"A","tz":"America/New_York","type":"airport","source":"OurAirports"},"dstAirport":{"airportId":"3077","name":"Hong Kong International Airport","city":"Hong Kong","country":"Hong Kong","icao":"VHHH","lat":"22.308901","lng":"113.915001","alt":"28","timezone":"8","dst":"U","tz":"Asia/Hong_Kong","type":"airport","source":"OurAirports"}},{"airline":"AA","airlineId":"24","srcIata":"EWR","srcAirportId":"3494","dstIata":"LHR","dstAirportId":"507","codeshare":"Y","stops":"0","equipment":"777 787","srcAirport":{"airportId":"3494","name":"Newark Liberty International Airport","city":"Newark","country":"United States","icao":"KEWR","lat":"40.692501068115234","lng":"-74.168701171875","alt":"18","timezone":"-5","dst":"A","tz":"America/New_York","type":"airport","source":"OurAirports"},"dstAirport":{"airportId":"507","name":"London Heathrow Airport","city":"London","country":"United Kingdom","icao":"EGLL","lat":"51.4706","lng":"-0.461941","alt":"83","timezone":"0","dst":"E","tz":"Europe/London","type":"airport","source":"OurAirports"}},{"airline":"AA","airlineId":"24","srcIata":"EWR","srcAirportId":"3494","dstIata":"ORY","dstAirportId":"1386","codeshare":"Y","stops":"0","equipment":"757","srcAirport":{"airportId":"3494","name":"Newark Liberty International Airport","city":"Newark","country":"United States","icao":"KEWR","lat":"40.692501068115234","lng":"-74.168701171875","alt":"18","timezone":"-5","dst":"A","tz":"America/New_York","type":"airport","source":"OurAirports"},"dstAirport":{"airportId":"1386","name":"Paris-Orly Airport","city":"Paris","country":"France","icao":"LFPO","lat":"48.7233333","lng":"2.3794444","alt":"291","timezone":"1","dst":"E","tz":"Europe/Paris","type":"airport","source":"OurAirports"}},{"airline":"AA","airlineId":"24","srcIata":"FLL","srcAirportId":"3533","dstIata":"PAP","dstAirportId":"1897","codeshare":"","stops":"0","equipment":"738","srcAirport":{"airportId":"3533","name":"Fort Lauderdale Hollywood International Airport","city":"Fort Lauderdale","country":"United States","icao":"KFLL","lat":"26.072599","lng":"-80.152702","alt":"9","timezone":"-5","dst":"A","tz":"America/New_York","type":"airport","source":"OurAirports"},"dstAirport":{"airportId":"1897","name":"Toussaint Louverture International Airport","city":"Port-au-prince","country":"Haiti","icao":"MTPP","lat":"18.579999923706055","lng":"-72.2925033569336","alt":"122","timezone":"-5","dst":"U","tz":"America/Port-au-Prince","type":"airport","source":"OurAirports"}},{"airline":"AA","airlineId":"24","srcIata":"HNL","srcAirportId":"3728","dstIata":"HND","dstAirportId":"2359","codeshare":"","stops":"0","equipment":"777","srcAirport":{"airportId":"3728","name":"Daniel K Inouye International Airport","city":"Honolulu","country":"United States","icao":"PHNL","lat":"21.32062","lng":"-157.924228","alt":"13","timezone":"-10","dst":"N","tz":"Pacific/Honolulu","type":"airport","source":"OurAirports"},"dstAirport":{"airportId":"2359","name":"Tokyo Haneda International Airport","city":"Tokyo","country":"Japan","icao":"RJTT","lat":"35.552299","lng":"139.779999","alt":"35","timezone":"9","dst":"U","tz":"Asia/Tokyo","type":"airport","source":"OurAirports"}},{"airline":"AA","airlineId":"24","srcIata":"HNL","srcAirportId":"3728","dstIata":"KIX","dstAirportId":"3992","codeshare":"","stops":"0","equipment":"777","srcAirport":{"airportId":"3728","name":"Daniel K Inouye International Airport","city":"Honolulu","country":"United States","icao":"PHNL","lat":"21.32062","lng":"-157.924228","alt":"13","timezone":"-10","dst":"N","tz":"Pacific/Honolulu","type":"airport","source":"OurAirports"},"dstAirport":{"airportId":"3992","name":"Kansai International Airport","city":"Osaka","country":"Japan","icao":"RJBB","lat":"34.42729949951172","lng":"135.24400329589844","alt":"26","timezone":"9","dst":"U","tz":"Asia/Tokyo","type":"airport","source":"OurAirports"}},{"airline":"AA","airlineId":"24","srcIata":"HNL","srcAirportId":"3728","dstIata":"NGO","dstAirportId":"3942","codeshare":"","stops":"0","equipment":"777","srcAirport":{"airportId":"3728","name":"Daniel K Inouye International Airport","city":"Honolulu","country":"United States","icao":"PHNL","lat":"21.32062","lng":"-157.924228","alt":"13","timezone":"-10","dst":"N","tz":"Pacific/Honolulu","type":"airport","source":"OurAirports"},"dstAirport":{"airportId":"3942","name":"Chubu Centrair International Airport","city":"Nagoya","country":"Japan","icao":"RJGG","lat":"34.8583984375","lng":"136.80499267578125","alt":"15","timezone":"9","dst":"U","tz":"Asia/Tokyo","type":"airport","source":"OurAirports"}},{"airline":"AA","airlineId":"24","srcIata":"HNL","srcAirportId":"3728","dstIata":"NRT","dstAirportId":"2279","codeshare":"","stops":"0","equipment":"787 777","srcAirport":{"airportId":"3728","name":"Daniel K Inouye International Airport","city":"Honolulu","country":"United States","icao":"PHNL","lat":"21.32062","lng":"-157.924228","alt":"13","timezone":"-10","dst":"N","tz":"Pacific/Honolulu","type":"airport","source":"OurAirports"},"dstAirport":{"airportId":"2279","name":"Narita International Airport","city":"Tokyo","country":"Japan","icao":"RJAA","lat":"35.7647018433","lng":"140.386001587","alt":"141","timezone":"9","dst":"U","tz":"Asia/Tokyo","type":"airport","source":"OurAirports"}},{"airline":"AA","airlineId":"24","srcIata":"HNL","srcAirportId":"3728","dstIata":"SYD","dstAirportId":"3361","codeshare":"Y","stops":"0","equipment":"763","srcAirport":{"airportId":"3728","name":"Daniel K Inouye International Airport","city":"Honolulu","country":"United States","icao":"PHNL","lat":"21.32062","lng":"-157.924228","alt":"13","timezone":"-10","dst":"N","tz":"Pacific/Honolulu","type":"airport","source":"OurAirports"},"dstAirport":{"airportId":"3361","name":"Sydney Kingsford Smith International Airport","city":"Sydney","country":"Australia","icao":"YSSY","lat":"-33.94609832763672","lng":"151.177001953125","alt":"21","timezone":"10","dst":"O","tz":"Australia/Sydney","type":"airport","source":"OurAirports"}},{"airline":"AA","airlineId":"24","srcIata":"IAD","srcAirportId":"3714","dstIata":"AUH","dstAirportId":"2179","codeshare":"Y","stops":"0","equipment":"340","srcAirport":{"airportId":"3714","name":"Washington Dulles International Airport","city":"Washington","country":"United States","icao":"KIAD","lat":"38.94449997","lng":"-77.45580292","alt":"312","timezone":"-5","dst":"A","tz":"America/New_York","type":"airport","source":"OurAirports"},"dstAirport":{"airportId":"2179","name":"Abu Dhabi International Airport","city":"Abu Dhabi","country":"United Arab Emirates","icao":"OMAA","lat":"24.433000564575195","lng":"54.651100158691406","alt":"88","timezone":"4","dst":"U","tz":"Asia/Dubai","type":"airport","source":"OurAirports"}},{"airline":"AA","airlineId":"24","srcIata":"IAD","srcAirportId":"3714","dstIata":"DOH","dstAirportId":"11051","codeshare":"","stops":"0","equipment":"777","srcAirport":{"airportId":"3714","name":"Washington Dulles International Airport","city":"Washington","country":"United States","icao":"KIAD","lat":"38.94449997","lng":"-77.45580292","alt":"312","timezone":"-5","dst":"A","tz":"America/New_York","type":"airport","source":"OurAirports"},"dstAirport":{"airportId":"11051","name":"Hamad International Airport","city":"Doha","country":"Qatar","icao":"OTHH","lat":"25.273056","lng":"51.608056","alt":"13","timezone":"3","dst":"N","tz":"\\\\N","type":"airport","source":"OurAirports"}},{"airline":"AA","airlineId":"24","srcIata":"IAD","srcAirportId":"3714","dstIata":"LHR","dstAirportId":"507","codeshare":"Y","stops":"0","equipment":"744 777","srcAirport":{"airportId":"3714","name":"Washington Dulles International Airport","city":"Washington","country":"United States","icao":"KIAD","lat":"38.94449997","lng":"-77.45580292","alt":"312","timezone":"-5","dst":"A","tz":"America/New_York","type":"airport","source":"OurAirports"},"dstAirport":{"airportId":"507","name":"London Heathrow Airport","city":"London","country":"United Kingdom","icao":"EGLL","lat":"51.4706","lng":"-0.461941","alt":"83","timezone":"0","dst":"E","tz":"Europe/London","type":"airport","source":"OurAirports"}},{"airline":"AA","airlineId":"24","srcIata":"IAH","srcAirportId":"3550","dstIata":"DOH","dstAirportId":"11051","codeshare":"","stops":"0","equipment":"777","srcAirport":{"airportId":"3550","name":"George Bush Intercontinental Houston Airport","city":"Houston","country":"United States","icao":"KIAH","lat":"29.984399795532227","lng":"-95.34140014648438","alt":"97","timezone":"-6","dst":"A","tz":"America/Chicago","type":"airport","source":"OurAirports"},"dstAirport":{"airportId":"11051","name":"Hamad International Airport","city":"Doha","country":"Qatar","icao":"OTHH","lat":"25.273056","lng":"51.608056","alt":"13","timezone":"3","dst":"N","tz":"\\\\N","type":"airport","source":"OurAirports"}},{"airline":"AA","airlineId":"24","srcIata":"IAH","srcAirportId":"3550","dstIata":"LHR","dstAirportId":"507","codeshare":"Y","stops":"0","equipment":"744 777","srcAirport":{"airportId":"3550","name":"George Bush Intercontinental Houston Airport","city":"Houston","country":"United States","icao":"KIAH","lat":"29.984399795532227","lng":"-95.34140014648438","alt":"97","timezone":"-6","dst":"A","tz":"America/Chicago","type":"airport","source":"OurAirports"},"dstAirport":{"airportId":"507","name":"London Heathrow Airport","city":"London","country":"United Kingdom","icao":"EGLL","lat":"51.4706","lng":"-0.461941","alt":"83","timezone":"0","dst":"E","tz":"Europe/London","type":"airport","source":"OurAirports"}},{"airline":"AA","airlineId":"24","srcIata":"JFK","srcAirportId":"3797","dstIata":"AMM","dstAirportId":"2170","codeshare":"Y","stops":"0","equipment":"340 330","srcAirport":{"airportId":"3797","name":"John F Kennedy International Airport","city":"New York","country":"United States","icao":"KJFK","lat":"40.63980103","lng":"-73.77890015","alt":"13","timezone":"-5","dst":"A","tz":"America/New_York","type":"airport","source":"OurAirports"},"dstAirport":{"airportId":"2170","name":"Queen Alia International Airport","city":"Amman","country":"Jordan","icao":"OJAI","lat":"31.7226009369","lng":"35.9931983948","alt":"2395","timezone":"2","dst":"E","tz":"Asia/Amman","type":"airport","source":"OurAirports"}},{"airline":"AA","airlineId":"24","srcIata":"JFK","srcAirportId":"3797","dstIata":"ANU","dstAirportId":"2874","codeshare":"","stops":"0","equipment":"738","srcAirport":{"airportId":"3797","name":"John F Kennedy International Airport","city":"New York","country":"United States","icao":"KJFK","lat":"40.63980103","lng":"-73.77890015","alt":"13","timezone":"-5","dst":"A","tz":"America/New_York","type":"airport","source":"OurAirports"},"dstAirport":{"airportId":"2874","name":"V.C. Bird International Airport","city":"Antigua","country":"Antigua and Barbuda","icao":"TAPA","lat":"17.1367","lng":"-61.792702","alt":"62","timezone":"-4","dst":"U","tz":"America/Antigua","type":"airport","source":"OurAirports"}},{"airline":"AA","airlineId":"24","srcIata":"JFK","srcAirportId":"3797","dstIata":"AUH","dstAirportId":"2179","codeshare":"Y","stops":"0","equipment":"777","srcAirport":{"airportId":"3797","name":"John F Kennedy International Airport","city":"New York","country":"United States","icao":"KJFK","lat":"40.63980103","lng":"-73.77890015","alt":"13","timezone":"-5","dst":"A","tz":"America/New_York","type":"airport","source":"OurAirports"},"dstAirport":{"airportId":"2179","name":"Abu Dhabi International Airport","city":"Abu Dhabi","country":"United Arab Emirates","icao":"OMAA","lat":"24.433000564575195","lng":"54.651100158691406","alt":"88","timezone":"4","dst":"U","tz":"Asia/Dubai","type":"airport","source":"OurAirports"}},{"airline":"AA","airlineId":"24","srcIata":"JFK","srcAirportId":"3797","dstIata":"BCN","dstAirportId":"1218","codeshare":"","stops":"0","equipment":"763","srcAirport":{"airportId":"3797","name":"John F Kennedy International Airport","city":"New York","country":"United States","icao":"KJFK","lat":"40.63980103","lng":"-73.77890015","alt":"13","timezone":"-5","dst":"A","tz":"America/New_York","type":"airport","source":"OurAirports"},"dstAirport":{"airportId":"1218","name":"Barcelona International Airport","city":"Barcelona","country":"Spain","icao":"LEBL","lat":"41.2971","lng":"2.07846","alt":"12","timezone":"1","dst":"E","tz":"Europe/Madrid","type":"airport","source":"OurAirports"}},